[
  {
    "addr": "新北市三重區安慶街",
    "coordinate": {
      "lat": 25.0680545,
      "lng": 121.4919101
    },
    "post_id": 5598566
  },
  {
    "addr": "新北市蘆洲區永康街",
    "coordinate": {
      "lat": 25.0852178,
      "lng": 121.4574813
    },
    "post_id": 6925937
  },
  {
    "addr": "新北市五股區新城五路1號",
    "coordinate": {
      "lat": 25.0920106,
      "lng": 121.4468875
    },
    "post_id": 6990439
  },
  {
    "addr": "新北市板橋區大同街41號",
    "coordinate": {
      "lat": 25.027481,
      "lng": 121.4782097
    },
    "post_id": 7038017
  },
  {
    "addr": "新北市板橋區雙十路二段79號",
    "coordinate": {
      "lat": 25.0270322,
      "lng": 121.4759388
    },
    "post_id": 7083121
  },
  {
    "addr": "新北市板橋區仁化街64巷16號",
    "coordinate": {
      "lat": 25.0313629,
      "lng": 121.475772
    },
    "post_id": 7086933
  },
  {
    "addr": "新北市淡水區中正東路35巷",
    "coordinate": {
      "lat": 25.1686283,
      "lng": 121.4464603
    },
    "post_id": 7107106
  },
  {
    "addr": "新北市淡水區中山路95號",
    "coordinate": {
      "lat": 25.1705509,
      "lng": 121.442048
    },
    "post_id": 7075061
  },
  {
    "addr": "新北市板橋區國泰街26號",
    "coordinate": {
      "lat": 25.0068221,
      "lng": 121.4687481
    },
    "post_id": 7107914
  },
  {
    "addr": "新北市永和區中和路347號",
    "coordinate": {
      "lat": 24.999891,
      "lng": 121.5078286
    },
    "post_id": 7046171
  },
  {
    "addr": "新北市新店區中央五街42號",
    "coordinate": {
      "lat": 24.9750209,
      "lng": 121.528333
    },
    "post_id": 6978575
  },
  {
    "addr": "新北市板橋區文化路二段",
    "coordinate": {
      "lat": 25.0289067,
      "lng": 121.471523
    },
    "post_id": 6887394
  },
  {
    "addr": "新北市新店區寶橋路59號",
    "coordinate": {
      "lat": 24.975036,
      "lng": 121.5451541
    },
    "post_id": 6947703
  },
  {
    "addr": "新北市三重區正義南路61號",
    "coordinate": {
      "lat": 25.06037,
      "lng": 121.498063
    },
    "post_id": 6978397
  },
  {
    "addr": "新北市板橋區信義路223號",
    "coordinate": {
      "lat": 24.991438,
      "lng": 121.459777
    },
    "post_id": 6994742
  },
  {
    "addr": "新北市新莊區中平路184巷",
    "coordinate": {
      "lat": 25.0479073,
      "lng": 121.4450664
    },
    "post_id": 6998033
  },
  {
    "addr": "新北市蘆洲區三民路",
    "coordinate": {
      "lat": 25.0894185,
      "lng": 121.4683893
    },
    "post_id": 7024526
  },
  {
    "addr": "新北市板橋區宏國路",
    "coordinate": {
      "lat": 25.031995,
      "lng": 121.4690562
    },
    "post_id": 7042977
  },
  {
    "addr": "新北市板橋區篤行路三段",
    "coordinate": {
      "lat": 24.9861281,
      "lng": 121.4278058
    },
    "post_id": 7126060
  },
  {
    "addr": "新北市中和區秀朗路三段74號",
    "coordinate": {
      "lat": 24.9942008,
      "lng": 121.5261731
    },
    "post_id": 6151644
  },
  {
    "addr": "新北市新莊區新泰路225巷",
    "coordinate": {
      "lat": 25.039011,
      "lng": 121.4452674
    },
    "post_id": 7086777
  },
  {
    "addr": "新北市中和區中正路23號",
    "coordinate": {
      "lat": 24.9932913,
      "lng": 121.5025787
    },
    "post_id": 6944984
  },
  {
    "addr": "新北市樹林區中山路一段",
    "coordinate": {
      "lat": 24.9897047,
      "lng": 121.4223895
    },
    "post_id": 6872485
  },
  {
    "addr": "新北市蘆洲區三民路26巷",
    "coordinate": {
      "lat": 25.0830201,
      "lng": 121.477656
    },
    "post_id": 7137358
  },
  {
    "addr": "新北市三重區碧華街",
    "coordinate": {
      "lat": 25.0827916,
      "lng": 121.4880065
    },
    "post_id": 5672954
  },
  {
    "addr": "新北市三重區中央北路44號",
    "coordinate": {
      "lat": 25.0648449,
      "lng": 121.500655
    },
    "post_id": 5689328
  },
  {
    "addr": "新北市板橋區民有街",
    "coordinate": {
      "lat": 25.0265429,
      "lng": 121.4653604
    },
    "post_id": 6269030
  },
  {
    "addr": "新北市淡水區中正路11巷1號",
    "coordinate": {
      "lat": 25.1701959,
      "lng": 121.4390754
    },
    "post_id": 6377801
  },
  {
    "addr": "新北市板橋區館前東路5號",
    "coordinate": {
      "lat": 25.0071377,
      "lng": 121.4595919
    },
    "post_id": 6435348
  },
  {
    "addr": "新北市板橋區國慶路",
    "coordinate": {
      "lat": 24.9958889,
      "lng": 121.4607208
    },
    "post_id": 6552762
  },
  {
    "addr": "新北市新莊區民安西路",
    "coordinate": {
      "lat": 25.0148494,
      "lng": 121.4260079
    },
    "post_id": 6576134
  },
  {
    "addr": "新北市中和區中原五街",
    "coordinate": {
      "lat": 25.0115366,
      "lng": 121.48691
    },
    "post_id": 6615076
  },
  {
    "addr": "新北市三重區長壽西街",
    "coordinate": {
      "lat": 25.066828,
      "lng": 121.4946659
    },
    "post_id": 6670238
  },
  {
    "addr": "新北市中和區中山路二段261號",
    "coordinate": {
      "lat": 25.002301,
      "lng": 121.4971455
    },
    "post_id": 6698067
  },
  {
    "addr": "新北市中和區景安路65號",
    "coordinate": {
      "lat": 24.9979087,
      "lng": 121.5070916
    },
    "post_id": 6708805
  },
  {
    "addr": "新北市淡水區英專路21巷1號",
    "coordinate": {
      "lat": 25.1696588,
      "lng": 121.4454853
    },
    "post_id": 6712658
  },
  {
    "addr": "新北市三重區頂崁街200號",
    "coordinate": {
      "lat": 25.066778,
      "lng": 121.477237
    },
    "post_id": 6834952
  },
  {
    "addr": "新北市中和區連城路327號",
    "coordinate": {
      "lat": 24.9959999,
      "lng": 121.4888531
    },
    "post_id": 6855450
  },
  {
    "addr": "新北市淡水區竹圍民族路37號",
    "coordinate": {
      "lat": 25.1356464,
      "lng": 121.4627381
    },
    "post_id": 6873546
  },
  {
    "addr": "新北市瑞芳區瑞芳街16號",
    "coordinate": {
      "lat": 25.1097439,
      "lng": 121.8065643
    },
    "post_id": 6882526
  },
  {
    "addr": "新北市板橋區民生路一段81號",
    "coordinate": {
      "lat": 25.013682,
      "lng": 121.474781
    },
    "post_id": 6883719
  },
  {
    "addr": "新北市新莊區後港一路",
    "coordinate": {
      "lat": 25.0272943,
      "lng": 121.4294434
    },
    "post_id": 6885552
  },
  {
    "addr": "新北市新莊區幸福路531號",
    "coordinate": {
      "lat": 25.0491899,
      "lng": 121.4552043
    },
    "post_id": 6888639
  },
  {
    "addr": "新北市土城區中央路二段196號",
    "coordinate": {
      "lat": 24.975924,
      "lng": 121.441752
    },
    "post_id": 6897198
  },
  {
    "addr": "新北市新莊區五權一路12巷21弄5號",
    "coordinate": {
      "lat": 25.0646436,
      "lng": 121.4577304
    },
    "post_id": 6897703
  },
  {
    "addr": "新北市中和區中和路61號",
    "coordinate": {
      "lat": 25.0011297,
      "lng": 121.5005807
    },
    "post_id": 6897866
  },
  {
    "addr": "新北市板橋區三民路一段189號",
    "coordinate": {
      "lat": 25.0192841,
      "lng": 121.4794511
    },
    "post_id": 6901994
  },
  {
    "addr": "新北市中和區中正路",
    "coordinate": {
      "lat": 25.0022187,
      "lng": 121.4850735
    },
    "post_id": 6904333
  },
  {
    "addr": "新北市板橋區信義路150巷",
    "coordinate": {
      "lat": 24.9917488,
      "lng": 121.4582515
    },
    "post_id": 6904638
  },
  {
    "addr": "新北市汐止區大同路二段312巷",
    "coordinate": {
      "lat": 25.0659508,
      "lng": 121.6559764
    },
    "post_id": 6905679
  },
  {
    "addr": "新北市板橋區中山路一段67號",
    "coordinate": {
      "lat": 25.0098364,
      "lng": 121.4611907
    },
    "post_id": 6907131
  },
  {
    "addr": "新北市三重區三陽路102號",
    "coordinate": {
      "lat": 25.0585682,
      "lng": 121.4834281
    },
    "post_id": 6912333
  },
  {
    "addr": "新北市三重區重陽路四段156號",
    "coordinate": {
      "lat": 25.0721325,
      "lng": 121.4929951
    },
    "post_id": 6916937
  },
  {
    "addr": "新北市板橋區四維路353號",
    "coordinate": {
      "lat": 25.0300397,
      "lng": 121.4621721
    },
    "post_id": 6919848
  },
  {
    "addr": "新北市板橋區民生路二段119號",
    "coordinate": {
      "lat": 25.0184837,
      "lng": 121.4705981
    },
    "post_id": 6920567
  },
  {
    "addr": "新北市樹林區後站街3巷",
    "coordinate": {
      "lat": 24.9913695,
      "lng": 121.4233493
    },
    "post_id": 6922403
  },
  {
    "addr": "新北市新店區中正路250號",
    "coordinate": {
      "lat": 24.9734002,
      "lng": 121.5394158
    },
    "post_id": 6922838
  },
  {
    "addr": "新北市淡水區淡金路38巷88號",
    "coordinate": {
      "lat": 25.1611547,
      "lng": 121.458335
    },
    "post_id": 6924264
  },
  {
    "addr": "新北市三重區正義北路127號",
    "coordinate": {
      "lat": 25.0661879,
      "lng": 121.4968796
    },
    "post_id": 6927927
  },
  {
    "addr": "新北市中和區景平路604號",
    "coordinate": {
      "lat": 24.9965815,
      "lng": 121.5009478
    },
    "post_id": 6931041
  },
  {
    "addr": "新北市中和區景安路117號",
    "coordinate": {
      "lat": 24.9963481,
      "lng": 121.5059242
    },
    "post_id": 6931708
  },
  {
    "addr": "新北市五股區新城八路7號",
    "coordinate": {
      "lat": 25.0892283,
      "lng": 121.4473319
    },
    "post_id": 6933578
  },
  {
    "addr": "新北市淡水區原德路15號",
    "coordinate": {
      "lat": 25.1714763,
      "lng": 121.4420833
    },
    "post_id": 6934225
  },
  {
    "addr": "新北市板橋區文化路二段",
    "coordinate": {
      "lat": 25.0289067,
      "lng": 121.471523
    },
    "post_id": 6935129
  },
  {
    "addr": "新北市板橋區宏國路",
    "coordinate": {
      "lat": 25.031995,
      "lng": 121.4690562
    },
    "post_id": 6935728
  },
  {
    "addr": "新北市三重區自強路四段",
    "coordinate": {
      "lat": 25.0781446,
      "lng": 121.489998
    },
    "post_id": 6939128
  },
  {
    "addr": "新北市板橋區重慶路65號",
    "coordinate": {
      "lat": 25.0071881,
      "lng": 121.4619199
    },
    "post_id": 6941500
  },
  {
    "addr": "新北市淡水區新春街",
    "coordinate": {
      "lat": 25.1818368,
      "lng": 121.4404866
    },
    "post_id": 6954418
  },
  {
    "addr": "新北市中和區興南路一段15號",
    "coordinate": {
      "lat": 24.99105,
      "lng": 121.5114677
    },
    "post_id": 6956640
  },
  {
    "addr": "新北市淡水區清水街",
    "coordinate": {
      "lat": 25.1700811,
      "lng": 121.4434176
    },
    "post_id": 6961659
  },
  {
    "addr": "新北市汐止區南陽街211號",
    "coordinate": {
      "lat": 25.0581616,
      "lng": 121.6262976
    },
    "post_id": 6965833
  },
  {
    "addr": "新北市汐止區中興路19號",
    "coordinate": {
      "lat": 25.059374,
      "lng": 121.636893
    },
    "post_id": 6966817
  },
  {
    "addr": "新北市深坑區北深路二段42號",
    "coordinate": {
      "lat": 25.0043581,
      "lng": 121.6195339
    },
    "post_id": 6969115
  },
  {
    "addr": "新北市新莊區新興街",
    "coordinate": {
      "lat": 25.0375652,
      "lng": 121.4507234
    },
    "post_id": 6974805
  },
  {
    "addr": "新北市蘆洲區長榮路53號",
    "coordinate": {
      "lat": 25.0831074,
      "lng": 121.4625628
    },
    "post_id": 6976948
  },
  {
    "addr": "新北市中和區中正路788號",
    "coordinate": {
      "lat": 25.0008205,
      "lng": 121.4853675
    },
    "post_id": 6988766
  },
  {
    "addr": "新北市永和區得和路301號",
    "coordinate": {
      "lat": 24.999841,
      "lng": 121.5229959
    },
    "post_id": 6989351
  },
  {
    "addr": "新北市土城區光明街",
    "coordinate": {
      "lat": 24.973886,
      "lng": 121.4421296
    },
    "post_id": 6992168
  },
  {
    "addr": "新北市淡水區中正路121號",
    "coordinate": {
      "lat": 25.1701535,
      "lng": 121.4395158
    },
    "post_id": 6994317
  },
  {
    "addr": "新北市林口區八德路468號",
    "coordinate": {
      "lat": 25.066086,
      "lng": 121.3571349
    },
    "post_id": 6997292
  },
  {
    "addr": "新北市三重區三和路三段116號",
    "coordinate": {
      "lat": 25.072182,
      "lng": 121.493718
    },
    "post_id": 7000388
  },
  {
    "addr": "新北市板橋區雙十路二段",
    "coordinate": {
      "lat": 25.0278809,
      "lng": 121.475096
    },
    "post_id": 7002181
  },
  {
    "addr": "新北市永和區永和路二段226號",
    "coordinate": {
      "lat": 25.0142581,
      "lng": 121.5157918
    },
    "post_id": 7005609
  },
  {
    "addr": "新北市樹林區俊興街",
    "coordinate": {
      "lat": 25.0145246,
      "lng": 121.4175904
    },
    "post_id": 7006714
  },
  {
    "addr": "新北市永和區仁愛路",
    "coordinate": {
      "lat": 25.0114248,
      "lng": 121.5081698
    },
    "post_id": 7006901
  },
  {
    "addr": "新北市三重區文化北路98號",
    "coordinate": {
      "lat": 25.066142,
      "lng": 121.498554
    },
    "post_id": 7008743
  },
  {
    "addr": "新北市蘆洲區中原路",
    "coordinate": {
      "lat": 25.0825496,
      "lng": 121.4597034
    },
    "post_id": 7010513
  },
  {
    "addr": "新北市三重區大同南路",
    "coordinate": {
      "lat": 25.0582308,
      "lng": 121.4963792
    },
    "post_id": 7014300
  },
  {
    "addr": "新北市永和區得和路337號",
    "coordinate": {
      "lat": 24.9995993,
      "lng": 121.5234136
    },
    "post_id": 7014635
  },
  {
    "addr": "新北市鶯歌區國華路",
    "coordinate": {
      "lat": 24.9544075,
      "lng": 121.3429472
    },
    "post_id": 7015421
  },
  {
    "addr": "新北市三峽區國學街8號",
    "coordinate": {
      "lat": 24.9415506,
      "lng": 121.3736498
    },
    "post_id": 7015464
  },
  {
    "addr": "新北市蘆洲區九芎街90巷",
    "coordinate": {
      "lat": 25.080586,
      "lng": 121.4653732
    },
    "post_id": 7020312
  },
  {
    "addr": "新北市淡水區新市一路三段",
    "coordinate": {
      "lat": 25.1829492,
      "lng": 121.4472244
    },
    "post_id": 7024329
  },
  {
    "addr": "新北市樹林區大安路588號",
    "coordinate": {
      "lat": 24.9835128,
      "lng": 121.4115356
    },
    "post_id": 7025787
  },
  {
    "addr": "新北市新店區中正路663巷1號",
    "coordinate": {
      "lat": 24.9895989,
      "lng": 121.533296
    },
    "post_id": 7025935
  },
  {
    "addr": "新北市永和區智光街47號",
    "coordinate": {
      "lat": 24.9980375,
      "lng": 121.5173411
    },
    "post_id": 7026506
  },
  {
    "addr": "新北市板橋區重慶路13巷1號",
    "coordinate": {
      "lat": 25.0082,
      "lng": 121.460889
    },
    "post_id": 7028769
  },
  {
    "addr": "新北市永和區永和路一段163號",
    "coordinate": {
      "lat": 25.0097414,
      "lng": 121.5142467
    },
    "post_id": 7030911
  },
  {
    "addr": "新北市樹林區鎮前街60號",
    "coordinate": {
      "lat": 24.992454,
      "lng": 121.425535
    },
    "post_id": 7033190
  },
  {
    "addr": "新北市板橋區重慶路12巷22號",
    "coordinate": {
      "lat": 25.0074659,
      "lng": 121.460451
    },
    "post_id": 7034479
  },
  {
    "addr": "新北市林口區八德路468號",
    "coordinate": {
      "lat": 25.066086,
      "lng": 121.3571349
    },
    "post_id": 7036579
  },
  {
    "addr": "新北市蘆洲區長榮路430號",
    "coordinate": {
      "lat": 25.0885649,
      "lng": 121.4596262
    },
    "post_id": 7040816
  },
  {
    "addr": "新北市板橋區大觀路三段",
    "coordinate": {
      "lat": 24.9937704,
      "lng": 121.4320553
    },
    "post_id": 7043110
  },
  {
    "addr": "新北市永和區永平路",
    "coordinate": {
      "lat": 25.0105921,
      "lng": 121.5090139
    },
    "post_id": 7044147
  },
  {
    "addr": "新北市新莊區豐盛一街",
    "coordinate": {
      "lat": 25.0000328,
      "lng": 121.4319928
    },
    "post_id": 7044411
  },
  {
    "addr": "新北市五股區成泰路三段577巷",
    "coordinate": {
      "lat": 25.10341,
      "lng": 121.450293
    },
    "post_id": 7047817
  },
  {
    "addr": "新北市三重區貴陽街",
    "coordinate": {
      "lat": 25.0625943,
      "lng": 121.4842788
    },
    "post_id": 7050345
  },
  {
    "addr": "新北市永和區中和路519巷1號",
    "coordinate": {
      "lat": 25.0028223,
      "lng": 121.5108091
    },
    "post_id": 7054740
  },
  {
    "addr": "新北市中和區中和路265號",
    "coordinate": {
      "lat": 24.9998162,
      "lng": 121.5054971
    },
    "post_id": 7057376
  },
  {
    "addr": "新北市汐止區汐萬路一段5號",
    "coordinate": {
      "lat": 25.067269,
      "lng": 121.65601
    },
    "post_id": 7058288
  },
  {
    "addr": "新北市永和區福和路149號",
    "coordinate": {
      "lat": 25.0076338,
      "lng": 121.5206531
    },
    "post_id": 7059440
  },
  {
    "addr": "新北市板橋區龍泉街55巷",
    "coordinate": {
      "lat": 25.024275,
      "lng": 121.4581392
    },
    "post_id": 7064150
  },
  {
    "addr": "新北市新店區民族路2號",
    "coordinate": {
      "lat": 24.979121,
      "lng": 121.541992
    },
    "post_id": 7066205
  },
  {
    "addr": "新北市三重區忠孝路三段49號",
    "coordinate": {
      "lat": 25.0669249,
      "lng": 121.480877
    },
    "post_id": 7068296
  },
  {
    "addr": "新北市永和區竹林路201巷22弄1號",
    "coordinate": {
      "lat": 25.0093972,
      "lng": 121.522089
    },
    "post_id": 7069864
  },
  {
    "addr": "新北市板橋區中山路一段",
    "coordinate": {
      "lat": 25.011832,
      "lng": 121.4655286
    },
    "post_id": 7071326
  },
  {
    "addr": "新北市鶯歌區國中街55號",
    "coordinate": {
      "lat": 24.9423105,
      "lng": 121.3421958
    },
    "post_id": 7072969
  },
  {
    "addr": "新北市金山區中山路",
    "coordinate": {
      "lat": 25.2223102,
      "lng": 121.6368439
    },
    "post_id": 7072987
  },
  {
    "addr": "新北市泰山區明志路一段495號",
    "coordinate": {
      "lat": 25.0551536,
      "lng": 121.4305718
    },
    "post_id": 7074927
  },
  {
    "addr": "新北市中和區連城路327號",
    "coordinate": {
      "lat": 24.9959999,
      "lng": 121.4888531
    },
    "post_id": 7075208
  },
  {
    "addr": "新北市中和區連城路327號",
    "coordinate": {
      "lat": 24.9959999,
      "lng": 121.4888531
    },
    "post_id": 7075222
  },
  {
    "addr": "新北市新莊區中港路26號",
    "coordinate": {
      "lat": 25.0374002,
      "lng": 121.4551738
    },
    "post_id": 7076846
  },
  {
    "addr": "新北市中和區新興街11號",
    "coordinate": {
      "lat": 25.0028408,
      "lng": 121.5119852
    },
    "post_id": 7082846
  },
  {
    "addr": "新北市新莊區中正路",
    "coordinate": {
      "lat": 25.031423,
      "lng": 121.4307293
    },
    "post_id": 7084204
  },
  {
    "addr": "新北市新店區新烏路三段3號",
    "coordinate": {
      "lat": 24.9063615,
      "lng": 121.5523906
    },
    "post_id": 7086169
  },
  {
    "addr": "新北市淡水區中正路65號",
    "coordinate": {
      "lat": 25.1695179,
      "lng": 121.441205
    },
    "post_id": 7089793
  },
  {
    "addr": "新北市中和區安樂路83號",
    "coordinate": {
      "lat": 24.9944649,
      "lng": 121.512875
    },
    "post_id": 7098680
  },
  {
    "addr": "新北市新店區中興路三段",
    "coordinate": {
      "lat": 24.9817184,
      "lng": 121.5439155
    },
    "post_id": 7099357
  },
  {
    "addr": "新北市新莊區五工二路65號",
    "coordinate": {
      "lat": 25.065858,
      "lng": 121.4604101
    },
    "post_id": 7101904
  },
  {
    "addr": "新北市蘆洲區和平路16號",
    "coordinate": {
      "lat": 25.0794142,
      "lng": 121.4725959
    },
    "post_id": 7104806
  },
  {
    "addr": "新北市板橋區文聖街",
    "coordinate": {
      "lat": 25.0290059,
      "lng": 121.4779459
    },
    "post_id": 7110000
  },
  {
    "addr": "新北市三重區大榮街26號",
    "coordinate": {
      "lat": 25.063611,
      "lng": 121.498378
    },
    "post_id": 7111022
  },
  {
    "addr": "新北市淡水區中山北路一段6號",
    "coordinate": {
      "lat": 25.1747687,
      "lng": 121.4416048
    },
    "post_id": 7115382
  },
  {
    "addr": "新北市淡水區淡金路二段",
    "coordinate": {
      "lat": 25.1890508,
      "lng": 121.4469952
    },
    "post_id": 7115496
  },
  {
    "addr": "新北市板橋區中山路二段416巷",
    "coordinate": {
      "lat": 25.0194019,
      "lng": 121.4830889
    },
    "post_id": 7122854
  },
  {
    "addr": "新北市蘆洲區集賢路281號",
    "coordinate": {
      "lat": 25.0830758,
      "lng": 121.481019
    },
    "post_id": 7122901
  },
  {
    "addr": "新北市鶯歌區重慶街88號",
    "coordinate": {
      "lat": 24.9522247,
      "lng": 121.3484739
    },
    "post_id": 7123609
  },
  {
    "addr": "新北市三峽區大學路",
    "coordinate": {
      "lat": 24.9437712,
      "lng": 121.374657
    },
    "post_id": 7124578
  },
  {
    "addr": "新北市新莊區新泰路305巷",
    "coordinate": {
      "lat": 25.0410911,
      "lng": 121.44539
    },
    "post_id": 7125664
  },
  {
    "addr": "新北市土城區學府路一段",
    "coordinate": {
      "lat": 24.9864837,
      "lng": 121.4539878
    },
    "post_id": 7127195
  },
  {
    "addr": "新北市中和區景平路355號",
    "coordinate": {
      "lat": 24.9933074,
      "lng": 121.5046985
    },
    "post_id": 7128418
  },
  {
    "addr": "新北市蘆洲區永安南路二段322號",
    "coordinate": {
      "lat": 25.0828477,
      "lng": 121.4571486
    },
    "post_id": 7132388
  },
  {
    "addr": "新北市新店區北新路三段216號",
    "coordinate": {
      "lat": 24.984389,
      "lng": 121.541327
    },
    "post_id": 7135512
  },
  {
    "addr": "新北市板橋區板新路",
    "coordinate": {
      "lat": 25.0141945,
      "lng": 121.4728748
    },
    "post_id": 7136336
  },
  {
    "addr": "新北市林口區南勢二街402號",
    "coordinate": {
      "lat": 25.0766878,
      "lng": 121.3596002
    },
    "post_id": 7137053
  },
  {
    "addr": "新北市五股區成泰路三段",
    "coordinate": {
      "lat": 25.0958264,
      "lng": 121.4487265
    },
    "post_id": 7137167
  },
  {
    "addr": "新北市新莊區天祥街29號",
    "coordinate": {
      "lat": 25.0283867,
      "lng": 121.4172571
    },
    "post_id": 7138002
  },
  {
    "addr": "新北市中和區景平路",
    "coordinate": {
      "lat": 24.9927636,
      "lng": 121.5118137
    },
    "post_id": 7140101
  },
  {
    "addr": "新北市土城區金城路一段139號",
    "coordinate": {
      "lat": 24.9743129,
      "lng": 121.445124
    },
    "post_id": 7142559
  },
  {
    "addr": "新北市金山區中山路",
    "coordinate": {
      "lat": 25.2223102,
      "lng": 121.6368439
    },
    "post_id": 7144801
  },
  {
    "addr": "新北市新店區中正路",
    "coordinate": {
      "lat": 24.9801772,
      "lng": 121.5338864
    },
    "post_id": 7148227
  },
  {
    "addr": "新北市新莊區新泰路279號",
    "coordinate": {
      "lat": 25.0405585,
      "lng": 121.4456293
    },
    "post_id": 7149464
  },
  {
    "addr": "新北市板橋區雙十路三段10巷13號",
    "coordinate": {
      "lat": 25.0310459,
      "lng": 121.472205
    },
    "post_id": 7150040
  },
  {
    "addr": "新北市板橋區國慶路42號",
    "coordinate": {
      "lat": 24.9957143,
      "lng": 121.4597124
    },
    "post_id": 7150778
  },
  {
    "addr": "新北市泰山區明志路二段31號",
    "coordinate": {
      "lat": 25.0531736,
      "lng": 121.4297241
    },
    "post_id": 7152667
  },
  {
    "addr": "新北市三重區重新路五段489號",
    "coordinate": {
      "lat": 25.0471769,
      "lng": 121.47278
    },
    "post_id": 7152826
  },
  {
    "addr": "新北市中和區景平路568號",
    "coordinate": {
      "lat": 24.9952009,
      "lng": 121.5020642
    },
    "post_id": 7153843
  },
  {
    "addr": "新北市汐止區汐萬路一段",
    "coordinate": {
      "lat": 25.0727673,
      "lng": 121.6517356
    },
    "post_id": 7154620
  },
  {
    "addr": "新北市永和區得和路392號",
    "coordinate": {
      "lat": 24.9991602,
      "lng": 121.5252157
    },
    "post_id": 7156529
  },
  {
    "addr": "新北市中和區新興街15巷22號",
    "coordinate": {
      "lat": 25.0029443,
      "lng": 121.5124807
    },
    "post_id": 7159667
  },
  {
    "addr": "新北市三重區溪尾街125號",
    "coordinate": {
      "lat": 25.0791918,
      "lng": 121.4895366
    },
    "post_id": 7165104
  },
  {
    "addr": "新北市新店區中正路114號",
    "coordinate": {
      "lat": 24.9712169,
      "lng": 121.542528
    },
    "post_id": 7165446
  },
  {
    "addr": "新北市板橋區文化路一段153號",
    "coordinate": {
      "lat": 25.0158461,
      "lng": 121.4625418
    },
    "post_id": 7166615
  },
  {
    "addr": "新北市板橋區四川路一段",
    "coordinate": {
      "lat": 25.0016309,
      "lng": 121.4592425
    },
    "post_id": 7170239
  },
  {
    "addr": "新北市中和區圓通路",
    "coordinate": {
      "lat": 24.9907232,
      "lng": 121.4925743
    },
    "post_id": 7170760
  },
  {
    "addr": "新北市烏來區新烏路三段50號",
    "coordinate": {
      "lat": 24.90462,
      "lng": 121.5538501
    },
    "post_id": 6899092
  },
  {
    "addr": "新北市板橋區文化路一段421巷6號",
    "coordinate": {
      "lat": 25.0228272,
      "lng": 121.4673237
    },
    "post_id": 6861721
  },
  {
    "addr": "新北市中和區民德路",
    "coordinate": {
      "lat": 24.998347,
      "lng": 121.4682386
    },
    "post_id": 7069565
  },
  {
    "addr": "新北市板橋區四維路279巷",
    "coordinate": {
      "lat": 25.0277609,
      "lng": 121.4611481
    },
    "post_id": 7159334
  },
  {
    "addr": "新北市永和區民生路46巷24號",
    "coordinate": {
      "lat": 24.996945,
      "lng": 121.521992
    },
    "post_id": 6974621
  },
  {
    "addr": "新北市新莊區中央路",
    "coordinate": {
      "lat": 25.0588124,
      "lng": 121.4520615
    },
    "post_id": 6953983
  },
  {
    "addr": "新北市蘆洲區中原路",
    "coordinate": {
      "lat": 25.0825496,
      "lng": 121.4597034
    },
    "post_id": 7171391
  },
  {
    "addr": "新北市三重區中央北路",
    "coordinate": {
      "lat": 25.0656743,
      "lng": 121.500525
    },
    "post_id": 7094948
  },
  {
    "addr": "新北市新莊區福德二街",
    "coordinate": {
      "lat": 25.0571618,
      "lng": 121.4607312
    },
    "post_id": 7147018
  },
  {
    "addr": "新北市板橋區四川路一段385號",
    "coordinate": {
      "lat": 24.9992918,
      "lng": 121.4581994
    },
    "post_id": 6785281
  },
  {
    "addr": "新北市板橋區雙十路二段",
    "coordinate": {
      "lat": 25.0278809,
      "lng": 121.475096
    },
    "post_id": 6937976
  },
  {
    "addr": "新北市新莊區中正路",
    "coordinate": {
      "lat": 25.031423,
      "lng": 121.4307293
    },
    "post_id": 6993495
  },
  {
    "addr": "新北市三重區重新路四段",
    "coordinate": {
      "lat": 25.0555187,
      "lng": 121.4863881
    },
    "post_id": 7069706
  },
  {
    "addr": "新北市板橋區四川路二段132號",
    "coordinate": {
      "lat": 24.9937102,
      "lng": 121.4499702
    },
    "post_id": 6870584
  },
  {
    "addr": "新北市板橋區金門街171號",
    "coordinate": {
      "lat": 24.9902778,
      "lng": 121.4326608
    },
    "post_id": 7022247
  },
  {
    "addr": "新北市中和區復興路348號",
    "coordinate": {
      "lat": 24.9903371,
      "lng": 121.5001161
    },
    "post_id": 7150701
  },
  {
    "addr": "新北市板橋區民生路一段",
    "coordinate": {
      "lat": 25.0129545,
      "lng": 121.4759044
    },
    "post_id": 7146743
  },
  {
    "addr": "新北市板橋區文化路一段188巷",
    "coordinate": {
      "lat": 25.0185769,
      "lng": 121.4676401
    },
    "post_id": 6882885
  },
  {
    "addr": "新北市三重區過圳街",
    "coordinate": {
      "lat": 25.0599114,
      "lng": 121.4881581
    },
    "post_id": 6980256
  },
  {
    "addr": "新北市新莊區建安街41巷5號",
    "coordinate": {
      "lat": 25.0253435,
      "lng": 121.4294357
    },
    "post_id": 7149146
  },
  {
    "addr": "新北市土城區中央路一段",
    "coordinate": {
      "lat": 24.9871811,
      "lng": 121.4460712
    },
    "post_id": 7084201
  },
  {
    "addr": "新北市板橋區四維路",
    "coordinate": {
      "lat": 25.027442,
      "lng": 121.4638565
    },
    "post_id": 6934489
  },
  {
    "addr": "新北市新莊區八德街",
    "coordinate": {
      "lat": 25.0211603,
      "lng": 121.4241629
    },
    "post_id": 6801672
  },
  {
    "addr": "新北市新莊區八德街58巷",
    "coordinate": {
      "lat": 25.0225682,
      "lng": 121.4246164
    },
    "post_id": 6872496
  },
  {
    "addr": "新北市板橋區南門街",
    "coordinate": {
      "lat": 25.0087717,
      "lng": 121.4573722
    },
    "post_id": 7013461
  },
  {
    "addr": "新北市永和區保順路",
    "coordinate": {
      "lat": 25.0106817,
      "lng": 121.5033844
    },
    "post_id": 7019782
  },
  {
    "addr": "新北市中和區中山路二段",
    "coordinate": {
      "lat": 25.0030092,
      "lng": 121.4918723
    },
    "post_id": 6896698
  },
  {
    "addr": "新北市蘆洲區得勝街94號",
    "coordinate": {
      "lat": 25.0834281,
      "lng": 121.4720735
    },
    "post_id": 7156173
  },
  {
    "addr": "新北市新莊區大觀街42巷",
    "coordinate": {
      "lat": 25.0359506,
      "lng": 121.4543947
    },
    "post_id": 7165161
  },
  {
    "addr": "新北市淡水區中正路",
    "coordinate": {
      "lat": 25.1716207,
      "lng": 121.4380698
    },
    "post_id": 6887243
  },
  {
    "addr": "新北市林口區民族路61巷",
    "coordinate": {
      "lat": 25.0746828,
      "lng": 121.3636491
    },
    "post_id": 7168865
  },
  {
    "addr": "新北市三峽區民生街142號",
    "coordinate": {
      "lat": 24.934878,
      "lng": 121.372456
    },
    "post_id": 7163368
  },
  {
    "addr": "新北市林口區中北一街85號",
    "coordinate": {
      "lat": 25.088208,
      "lng": 121.3858952
    },
    "post_id": 7142179
  },
  {
    "addr": "新北市中和區興南路一段",
    "coordinate": {
      "lat": 24.9889136,
      "lng": 121.5098619
    },
    "post_id": 6820428
  },
  {
    "addr": "新北市三峽區國際一街",
    "coordinate": {
      "lat": 24.9422648,
      "lng": 121.3730003
    },
    "post_id": 6959985
  },
  {
    "addr": "新北市蘆洲區永樂街38巷",
    "coordinate": {
      "lat": 25.0894184,
      "lng": 121.4582814
    },
    "post_id": 6843470
  },
  {
    "addr": "新北市三重區中華路",
    "coordinate": {
      "lat": 25.0626012,
      "lng": 121.4835199
    },
    "post_id": 6857564
  },
  {
    "addr": "新北市板橋區板新路47號",
    "coordinate": {
      "lat": 25.0133525,
      "lng": 121.4739715
    },
    "post_id": 6895398
  },
  {
    "addr": "新北市永和區永和路一段90號",
    "coordinate": {
      "lat": 25.006828,
      "lng": 121.513193
    },
    "post_id": 7032170
  },
  {
    "addr": "新北市三重區永福街39號",
    "coordinate": {
      "lat": 25.0781766,
      "lng": 121.4813659
    },
    "post_id": 7036666
  },
  {
    "addr": "新北市新店區建國路",
    "coordinate": {
      "lat": 24.9796981,
      "lng": 121.5381367
    },
    "post_id": 7073147
  },
  {
    "addr": "新北市新店區華中街56號",
    "coordinate": {
      "lat": 24.9711553,
      "lng": 121.5411132
    },
    "post_id": 7159583
  },
  {
    "addr": "新北市蘆洲區長樂路",
    "coordinate": {
      "lat": 25.0874963,
      "lng": 121.462329
    },
    "post_id": 7138969
  },
  {
    "addr": "新北市鶯歌區國華路",
    "coordinate": {
      "lat": 24.9544075,
      "lng": 121.3429472
    },
    "post_id": 6897180
  },
  {
    "addr": "新北市板橋區雙十路三段62號",
    "coordinate": {
      "lat": 25.0318178,
      "lng": 121.4709079
    },
    "post_id": 2442283
  },
  {
    "addr": "新北市板橋區縣民大道三段",
    "coordinate": {
      "lat": 25.0227181,
      "lng": 121.4771608
    },
    "post_id": 2580934
  },
  {
    "addr": "新北市中和區景平路",
    "coordinate": {
      "lat": 24.9927636,
      "lng": 121.5118137
    },
    "post_id": 3340168
  },
  {
    "addr": "新北市五股區芳洲八路80號",
    "coordinate": {
      "lat": 25.0886513,
      "lng": 121.4463209
    },
    "post_id": 3516292
  },
  {
    "addr": "新北市中和區成功路71號",
    "coordinate": {
      "lat": 24.9923469,
      "lng": 121.526141
    },
    "post_id": 4084770
  },
  {
    "addr": "新北市泰山區明志路三段423號",
    "coordinate": {
      "lat": 25.0333529,
      "lng": 121.421038
    },
    "post_id": 4904794
  },
  {
    "addr": "新北市淡水區濱海路一段49號",
    "coordinate": {
      "lat": 25.18914,
      "lng": 121.4425774
    },
    "post_id": 5518202
  },
  {
    "addr": "新北市土城區青雲路370號",
    "coordinate": {
      "lat": 24.973631,
      "lng": 121.458528
    },
    "post_id": 5647337
  },
  {
    "addr": "新北市新莊區復興路一段",
    "coordinate": {
      "lat": 25.0429334,
      "lng": 121.4491638
    },
    "post_id": 5751396
  },
  {
    "addr": "新北市板橋區大觀路二段",
    "coordinate": {
      "lat": 25.0003584,
      "lng": 121.4450479
    },
    "post_id": 5994654
  },
  {
    "addr": "新北市三重區三和路四段203巷",
    "coordinate": {
      "lat": 25.0804672,
      "lng": 121.4857634
    },
    "post_id": 6186328
  },
  {
    "addr": "新北市板橋區南雅南路二段144巷58號",
    "coordinate": {
      "lat": 24.996415,
      "lng": 121.451101
    },
    "post_id": 6241411
  },
  {
    "addr": "新北市板橋區文化路一段",
    "coordinate": {
      "lat": 25.0163018,
      "lng": 121.4629721
    },
    "post_id": 6410815
  },
  {
    "addr": "新北市板橋區文化路一段421巷10號",
    "coordinate": {
      "lat": 25.022937,
      "lng": 121.467239
    },
    "post_id": 6604621
  },
  {
    "addr": "新北市板橋區文化路一段421巷10號",
    "coordinate": {
      "lat": 25.022937,
      "lng": 121.467239
    },
    "post_id": 6605400
  },
  {
    "addr": "新北市三重區正義北路4號",
    "coordinate": {
      "lat": 25.0625217,
      "lng": 121.4976254
    },
    "post_id": 6685934
  },
  {
    "addr": "新北市永和區林森路109號",
    "coordinate": {
      "lat": 25.003344,
      "lng": 121.523225
    },
    "post_id": 6841527
  },
  {
    "addr": "新北市板橋區忠孝路",
    "coordinate": {
      "lat": 25.0023693,
      "lng": 121.4634062
    },
    "post_id": 6843835
  },
  {
    "addr": "新北市中和區明仁街",
    "coordinate": {
      "lat": 24.9954642,
      "lng": 121.5063509
    },
    "post_id": 6844622
  },
  {
    "addr": "新北市中和區保健路10巷3弄1號",
    "coordinate": {
      "lat": 24.9976885,
      "lng": 121.507814
    },
    "post_id": 6844681
  },
  {
    "addr": "新北市中和區連城路",
    "coordinate": {
      "lat": 24.9962603,
      "lng": 121.4880503
    },
    "post_id": 6845846
  },
  {
    "addr": "新北市蘆洲區中山二路",
    "coordinate": {
      "lat": 25.0801191,
      "lng": 121.4702092
    },
    "post_id": 6847096
  },
  {
    "addr": "新北市蘆洲區長榮路53號",
    "coordinate": {
      "lat": 25.0831074,
      "lng": 121.4625628
    },
    "post_id": 6848697
  },
  {
    "addr": "新北市永和區保福路二段",
    "coordinate": {
      "lat": 25.0131044,
      "lng": 121.5104879
    },
    "post_id": 6849269
  },
  {
    "addr": "新北市板橋區中正路250巷34號",
    "coordinate": {
      "lat": 25.0194313,
      "lng": 121.456861
    },
    "post_id": 6850133
  },
  {
    "addr": "新北市板橋區大東街",
    "coordinate": {
      "lat": 25.0085965,
      "lng": 121.4565372
    },
    "post_id": 6850248
  },
  {
    "addr": "新北市汐止區樟樹二路",
    "coordinate": {
      "lat": 25.068256,
      "lng": 121.6409225
    },
    "post_id": 6850284
  },
  {
    "addr": "新北市永和區永亨路",
    "coordinate": {
      "lat": 25.0048183,
      "lng": 121.523111
    },
    "post_id": 6850467
  },
  {
    "addr": "新北市板橋區文化路二段",
    "coordinate": {
      "lat": 25.0289067,
      "lng": 121.471523
    },
    "post_id": 6851623
  },
  {
    "addr": "新北市烏來區烏來街143號",
    "coordinate": {
      "lat": 24.8628052,
      "lng": 121.5514589
    },
    "post_id": 6853617
  },
  {
    "addr": "新北市中和區連城路1號",
    "coordinate": {
      "lat": 25.0022681,
      "lng": 121.4994233
    },
    "post_id": 6853838
  },
  {
    "addr": "新北市新莊區立信五街1號",
    "coordinate": {
      "lat": 25.0514605,
      "lng": 121.4445426
    },
    "post_id": 6853876
  },
  {
    "addr": "新北市板橋區莊敬路218號",
    "coordinate": {
      "lat": 25.0212707,
      "lng": 121.4724305
    },
    "post_id": 6857425
  },
  {
    "addr": "新北市樹林區俊英街217號",
    "coordinate": {
      "lat": 25.0122998,
      "lng": 121.423554
    },
    "post_id": 6858266
  },
  {
    "addr": "新北市土城區裕民路",
    "coordinate": {
      "lat": 24.986242,
      "lng": 121.4516206
    },
    "post_id": 6858491
  },
  {
    "addr": "新北市新莊區中正路514巷",
    "coordinate": {
      "lat": 25.0343252,
      "lng": 121.4311575
    },
    "post_id": 6858911
  },
  {
    "addr": "新北市永和區秀朗路二段161巷22號",
    "coordinate": {
      "lat": 25.0022423,
      "lng": 121.5252193
    },
    "post_id": 6859420
  },
  {
    "addr": "新北市新莊區新泰路",
    "coordinate": {
      "lat": 25.0398803,
      "lng": 121.4461237
    },
    "post_id": 6860956
  },
  {
    "addr": "新北市板橋區重慶路175號",
    "coordinate": {
      "lat": 25.0025712,
      "lng": 121.4627672
    },
    "post_id": 6866618
  },
  {
    "addr": "新北市新店區民權路143號",
    "coordinate": {
      "lat": 24.982269,
      "lng": 121.534437
    },
    "post_id": 6869519
  },
  {
    "addr": "新北市板橋區文聖街",
    "coordinate": {
      "lat": 25.0290059,
      "lng": 121.4779459
    },
    "post_id": 6871596
  },
  {
    "addr": "新北市林口區文化三路二段",
    "coordinate": {
      "lat": 25.0845056,
      "lng": 121.3776849
    },
    "post_id": 6875170
  },
  {
    "addr": "新北市三重區福德北路26號",
    "coordinate": {
      "lat": 25.0648574,
      "lng": 121.5020885
    },
    "post_id": 6877537
  },
  {
    "addr": "新北市五股區成泰路一段61巷22號",
    "coordinate": {
      "lat": 25.0676585,
      "lng": 121.4343464
    },
    "post_id": 6878506
  },
  {
    "addr": "新北市中和區景安路167巷5號",
    "coordinate": {
      "lat": 24.9947706,
      "lng": 121.5058354
    },
    "post_id": 6878872
  },
  {
    "addr": "新北市土城區學府路一段",
    "coordinate": {
      "lat": 24.9864837,
      "lng": 121.4539878
    },
    "post_id": 6880941
  },
  {
    "addr": "新北市新莊區公園一路",
    "coordinate": {
      "lat": 25.0379932,
      "lng": 121.4448667
    },
    "post_id": 6881373
  },
  {
    "addr": "新北市板橋區文化路一段435巷",
    "coordinate": {
      "lat": 25.02337,
      "lng": 121.4667859
    },
    "post_id": 6881379
  },
  {
    "addr": "新北市三峽區大同路270巷25號",
    "coordinate": {
      "lat": 24.926111,
      "lng": 121.365143
    },
    "post_id": 6882290
  },
  {
    "addr": "新北市永和區中和路345號",
    "coordinate": {
      "lat": 24.9998583,
      "lng": 121.5079756
    },
    "post_id": 6884661
  },
  {
    "addr": "新北市新莊區中原路",
    "coordinate": {
      "lat": 25.0543131,
      "lng": 121.44978
    },
    "post_id": 6885242
  },
  {
    "addr": "新北市板橋區館前東路",
    "coordinate": {
      "lat": 25.0075138,
      "lng": 121.4623269
    },
    "post_id": 6886171
  },
  {
    "addr": "新北市永和區保安路",
    "coordinate": {
      "lat": 25.0146274,
      "lng": 121.5083527
    },
    "post_id": 6888579
  },
  {
    "addr": "新北市三重區長安街88號",
    "coordinate": {
      "lat": 25.0676093,
      "lng": 121.5017214
    },
    "post_id": 6890745
  },
  {
    "addr": "新北市三重區過圳街88號",
    "coordinate": {
      "lat": 25.0618229,
      "lng": 121.486432
    },
    "post_id": 6892698
  },
  {
    "addr": "新北市五股區新五路二段",
    "coordinate": {
      "lat": 25.0784678,
      "lng": 121.4385246
    },
    "post_id": 6893935
  },
  {
    "addr": "新北市汐止區中興路",
    "coordinate": {
      "lat": 25.0644023,
      "lng": 121.6326911
    },
    "post_id": 6900452
  },
  {
    "addr": "新北市三峽區中正路一段215號",
    "coordinate": {
      "lat": 24.9273369,
      "lng": 121.37226
    },
    "post_id": 6900636
  },
  {
    "addr": "新北市三重區正義北路22號",
    "coordinate": {
      "lat": 25.063485,
      "lng": 121.4976744
    },
    "post_id": 6902557
  },
  {
    "addr": "新北市永和區中正路78號",
    "coordinate": {
      "lat": 24.9951243,
      "lng": 121.5138463
    },
    "post_id": 6902852
  },
  {
    "addr": "新北市新莊區思源路593巷",
    "coordinate": {
      "lat": 25.0596181,
      "lng": 121.4592235
    },
    "post_id": 6903063
  },
  {
    "addr": "新北市土城區青雲路585號",
    "coordinate": {
      "lat": 24.9714992,
      "lng": 121.4594651
    },
    "post_id": 6905210
  },
  {
    "addr": "新北市板橋區民族路159號",
    "coordinate": {
      "lat": 25.0077333,
      "lng": 121.4682196
    },
    "post_id": 6908011
  },
  {
    "addr": "新北市新店區北新路三段",
    "coordinate": {
      "lat": 24.9820925,
      "lng": 121.5415346
    },
    "post_id": 6910820
  },
  {
    "addr": "新北市板橋區四川路二段",
    "coordinate": {
      "lat": 24.9950533,
      "lng": 121.453337
    },
    "post_id": 6911362
  },
  {
    "addr": "新北市三重區正義北路",
    "coordinate": {
      "lat": 25.0672296,
      "lng": 121.496428
    },
    "post_id": 6912163
  },
  {
    "addr": "新北市新莊區中正路",
    "coordinate": {
      "lat": 25.031423,
      "lng": 121.4307293
    },
    "post_id": 6912775
  },
  {
    "addr": "新北市板橋區國慶路",
    "coordinate": {
      "lat": 24.9958889,
      "lng": 121.4607208
    },
    "post_id": 6914502
  },
  {
    "addr": "新北市三重區中正北路",
    "coordinate": {
      "lat": 25.067402,
      "lng": 121.4826233
    },
    "post_id": 6915285
  },
  {
    "addr": "新北市新莊區幸福東路127號",
    "coordinate": {
      "lat": 25.0494675,
      "lng": 121.4619333
    },
    "post_id": 6919398
  },
  {
    "addr": "新北市永和區竹林路33號",
    "coordinate": {
      "lat": 25.0144713,
      "lng": 121.5176435
    },
    "post_id": 6922122
  },
  {
    "addr": "新北市板橋區國泰街82號",
    "coordinate": {
      "lat": 25.0065644,
      "lng": 121.4672471
    },
    "post_id": 6922300
  },
  {
    "addr": "新北市樹林區保安街二段271號",
    "coordinate": {
      "lat": 25.005564,
      "lng": 121.4126415
    },
    "post_id": 6923478
  },
  {
    "addr": "新北市中和區連城路485號",
    "coordinate": {
      "lat": 24.995478,
      "lng": 121.482935
    },
    "post_id": 6925255
  },
  {
    "addr": "新北市永和區永利路",
    "coordinate": {
      "lat": 25.0035724,
      "lng": 121.5211032
    },
    "post_id": 6925548
  },
  {
    "addr": "新北市新莊區自信街45巷10號",
    "coordinate": {
      "lat": 25.0488639,
      "lng": 121.454702
    },
    "post_id": 6926035
  },
  {
    "addr": "新北市八里區龍米路二段181號",
    "coordinate": {
      "lat": 25.158097,
      "lng": 121.4344605
    },
    "post_id": 6927118
  },
  {
    "addr": "新北市三重區文化北路47號",
    "coordinate": {
      "lat": 25.065589,
      "lng": 121.499061
    },
    "post_id": 6927680
  },
  {
    "addr": "新北市新店區北新路一段146號",
    "coordinate": {
      "lat": 24.9704925,
      "lng": 121.5425379
    },
    "post_id": 6927982
  },
  {
    "addr": "新北市板橋區民族路",
    "coordinate": {
      "lat": 25.0085333,
      "lng": 121.4657606
    },
    "post_id": 6928658
  },
  {
    "addr": "新北市三重區力行路二段91巷12號",
    "coordinate": {
      "lat": 25.0760206,
      "lng": 121.4831251
    },
    "post_id": 6929134
  },
  {
    "addr": "新北市樹林區中山路",
    "coordinate": {
      "lat": 24.9711924,
      "lng": 121.3905323
    },
    "post_id": 6929800
  },
  {
    "addr": "新北市新店區安民街156巷",
    "coordinate": {
      "lat": 24.9699788,
      "lng": 121.5173748
    },
    "post_id": 6930255
  },
  {
    "addr": "新北市板橋區裕民街",
    "coordinate": {
      "lat": 25.0283255,
      "lng": 121.4607927
    },
    "post_id": 6932944
  },
  {
    "addr": "新北市永和區得和路",
    "coordinate": {
      "lat": 24.9999956,
      "lng": 121.5203545
    },
    "post_id": 6935867
  },
  {
    "addr": "新北市土城區裕民路214巷19號",
    "coordinate": {
      "lat": 24.9835227,
      "lng": 121.4525492
    },
    "post_id": 6936084
  },
  {
    "addr": "新北市土城區學府路一段98巷25號",
    "coordinate": {
      "lat": 24.988477,
      "lng": 121.455205
    },
    "post_id": 6936378
  },
  {
    "addr": "新北市淡水區濱海路二段202巷",
    "coordinate": {
      "lat": 25.1903865,
      "lng": 121.4353894
    },
    "post_id": 6942765
  },
  {
    "addr": "新北市新店區寶橋路15號",
    "coordinate": {
      "lat": 24.974062,
      "lng": 121.5436731
    },
    "post_id": 6942953
  },
  {
    "addr": "新北市板橋區懷德街127巷",
    "coordinate": {
      "lat": 25.0312742,
      "lng": 121.4797396
    },
    "post_id": 6943794
  },
  {
    "addr": "新北市新莊區思源路",
    "coordinate": {
      "lat": 25.0491921,
      "lng": 121.4600817
    },
    "post_id": 6947507
  },
  {
    "addr": "新北市板橋區南雅西路二段143號",
    "coordinate": {
      "lat": 25.0116395,
      "lng": 121.4522262
    },
    "post_id": 6948026
  },
  {
    "addr": "新北市永和區中和路",
    "coordinate": {
      "lat": 24.9996908,
      "lng": 121.5059324
    },
    "post_id": 6949073
  },
  {
    "addr": "新北市板橋區中正路379巷1號",
    "coordinate": {
      "lat": 25.0217137,
      "lng": 121.4536459
    },
    "post_id": 6954060
  },
  {
    "addr": "新北市樹林區四德街",
    "coordinate": {
      "lat": 24.9921124,
      "lng": 121.4263232
    },
    "post_id": 6954522
  },
  {
    "addr": "新北市三重區三民街",
    "coordinate": {
      "lat": 25.0655113,
      "lng": 121.4822236
    },
    "post_id": 6955517
  },
  {
    "addr": "新北市土城區亞洲路49號",
    "coordinate": {
      "lat": 24.9713492,
      "lng": 121.4335594
    },
    "post_id": 6956939
  },
  {
    "addr": "新北市板橋區莊敬路",
    "coordinate": {
      "lat": 25.0253447,
      "lng": 121.4719156
    },
    "post_id": 6958177
  },
  {
    "addr": "新北市泰山區貴子路",
    "coordinate": {
      "lat": 25.0407388,
      "lng": 121.4281342
    },
    "post_id": 6958420
  },
  {
    "addr": "新北市金山區中正路99號",
    "coordinate": {
      "lat": 25.2216006,
      "lng": 121.6331001
    },
    "post_id": 6960533
  },
  {
    "addr": "新北市三芝區三民街",
    "coordinate": {
      "lat": 25.2587065,
      "lng": 121.5049285
    },
    "post_id": 6961348
  },
  {
    "addr": "新北市三重區永福街62號",
    "coordinate": {
      "lat": 25.0778032,
      "lng": 121.4809218
    },
    "post_id": 6962746
  },
  {
    "addr": "新北市新莊區中平路8巷9號",
    "coordinate": {
      "lat": 25.0430789,
      "lng": 121.4457224
    },
    "post_id": 6972561
  },
  {
    "addr": "新北市板橋區中正路236號",
    "coordinate": {
      "lat": 25.0189459,
      "lng": 121.4558239
    },
    "post_id": 6972919
  },
  {
    "addr": "新北市三重區三和路二段173巷",
    "coordinate": {
      "lat": 25.0701821,
      "lng": 121.4991988
    },
    "post_id": 6974620
  },
  {
    "addr": "新北市板橋區中山路",
    "coordinate": {
      "lat": 25.011832,
      "lng": 121.4655286
    },
    "post_id": 6974820
  },
  {
    "addr": "新北市永和區成功路一段105號",
    "coordinate": {
      "lat": 25.0024171,
      "lng": 121.5270463
    },
    "post_id": 6976077
  },
  {
    "addr": "新北市中和區安平路158號",
    "coordinate": {
      "lat": 24.998436,
      "lng": 121.512667
    },
    "post_id": 6977100
  },
  {
    "addr": "新北市新莊區福德三街",
    "coordinate": {
      "lat": 25.0587916,
      "lng": 121.4615201
    },
    "post_id": 6977488
  },
  {
    "addr": "新北市永和區福和路94號",
    "coordinate": {
      "lat": 25.0081081,
      "lng": 121.5224518
    },
    "post_id": 6979117
  },
  {
    "addr": "新北市樹林區復興路",
    "coordinate": {
      "lat": 24.9889416,
      "lng": 121.4185901
    },
    "post_id": 6979412
  },
  {
    "addr": "新北市淡水區三民街26號",
    "coordinate": {
      "lat": 25.1722937,
      "lng": 121.4396382
    },
    "post_id": 6984637
  },
  {
    "addr": "新北市板橋區南門街1巷1號",
    "coordinate": {
      "lat": 25.0085928,
      "lng": 121.4577407
    },
    "post_id": 6985623
  },
  {
    "addr": "新北市新莊區民安路",
    "coordinate": {
      "lat": 25.0227587,
      "lng": 121.4301911
    },
    "post_id": 6986668
  },
  {
    "addr": "新北市板橋區四川路一段136號",
    "coordinate": {
      "lat": 25.0037832,
      "lng": 121.4598495
    },
    "post_id": 6988773
  },
  {
    "addr": "新北市永和區保平路111巷2弄2號",
    "coordinate": {
      "lat": 25.0064529,
      "lng": 121.510966
    },
    "post_id": 6990074
  },
  {
    "addr": "新北市三重區集美街223號",
    "coordinate": {
      "lat": 25.0549136,
      "lng": 121.4920704
    },
    "post_id": 6990231
  },
  {
    "addr": "新北市新店區北新路三段",
    "coordinate": {
      "lat": 24.9820925,
      "lng": 121.5415346
    },
    "post_id": 6992588
  },
  {
    "addr": "新北市淡水區中山路",
    "coordinate": {
      "lat": 25.1709182,
      "lng": 121.4418365
    },
    "post_id": 6992814
  },
  {
    "addr": "新北市林口區文化一路",
    "coordinate": {
      "lat": 25.0633128,
      "lng": 121.3691305
    },
    "post_id": 6993812
  },
  {
    "addr": "新北市板橋區龍泉街90巷18號",
    "coordinate": {
      "lat": 25.0250439,
      "lng": 121.456006
    },
    "post_id": 6995223
  },
  {
    "addr": "新北市板橋區篤行路二段152號",
    "coordinate": {
      "lat": 24.988184,
      "lng": 121.429471
    },
    "post_id": 6996671
  },
  {
    "addr": "新北市新莊區中興街",
    "coordinate": {
      "lat": 25.0374449,
      "lng": 121.4491819
    },
    "post_id": 6998693
  },
  {
    "addr": "新北市板橋區龍興街65巷",
    "coordinate": {
      "lat": 25.0018182,
      "lng": 121.4425932
    },
    "post_id": 6998916
  },
  {
    "addr": "新北市三峽區三樹路",
    "coordinate": {
      "lat": 24.9407519,
      "lng": 121.3786313
    },
    "post_id": 7000259
  },
  {
    "addr": "新北市三重區自強路二段",
    "coordinate": {
      "lat": 25.0698396,
      "lng": 121.4887964
    },
    "post_id": 7004032
  },
  {
    "addr": "新北市林口區文化三路二段150號",
    "coordinate": {
      "lat": 25.0814509,
      "lng": 121.3754849
    },
    "post_id": 7004434
  },
  {
    "addr": "新北市中和區景平路574號",
    "coordinate": {
      "lat": 24.9955576,
      "lng": 121.501697
    },
    "post_id": 7008576
  },
  {
    "addr": "新北市板橋區重慶路",
    "coordinate": {
      "lat": 25.0029251,
      "lng": 121.4626221
    },
    "post_id": 7009750
  },
  {
    "addr": "新北市新店區民權路42巷",
    "coordinate": {
      "lat": 24.9836592,
      "lng": 121.5395595
    },
    "post_id": 7009886
  },
  {
    "addr": "新北市板橋區公園街34巷",
    "coordinate": {
      "lat": 25.0089942,
      "lng": 121.4615724
    },
    "post_id": 7010050
  },
  {
    "addr": "新北市五股區新五路二段",
    "coordinate": {
      "lat": 25.0784678,
      "lng": 121.4385246
    },
    "post_id": 7011441
  },
  {
    "addr": "新北市淡水區沙崙路一段108號",
    "coordinate": {
      "lat": 25.1886698,
      "lng": 121.43009
    },
    "post_id": 7018563
  },
  {
    "addr": "新北市土城區學府路二段",
    "coordinate": {
      "lat": 24.9793679,
      "lng": 121.4469547
    },
    "post_id": 7020092
  },
  {
    "addr": "新北市板橋區中正路403號",
    "coordinate": {
      "lat": 25.0222846,
      "lng": 121.4541096
    },
    "post_id": 7021622
  },
  {
    "addr": "新北市林口區文化三路一段555巷",
    "coordinate": {
      "lat": 25.0762971,
      "lng": 121.3695782
    },
    "post_id": 7023451
  },
  {
    "addr": "新北市新店區北新路一段1號",
    "coordinate": {
      "lat": 24.958785,
      "lng": 121.537422
    },
    "post_id": 7023517
  },
  {
    "addr": "新北市蘆洲區中山二路60號",
    "coordinate": {
      "lat": 25.0822613,
      "lng": 121.4736893
    },
    "post_id": 7024196
  },
  {
    "addr": "新北市板橋區中興路",
    "coordinate": {
      "lat": 25.00719,
      "lng": 121.4553603
    },
    "post_id": 7025682
  },
  {
    "addr": "新北市新莊區中正路475號",
    "coordinate": {
      "lat": 25.033637,
      "lng": 121.441638
    },
    "post_id": 7032381
  },
  {
    "addr": "新北市三重區重陽路四段",
    "coordinate": {
      "lat": 25.0707131,
      "lng": 121.4921337
    },
    "post_id": 7032410
  },
  {
    "addr": "新北市新莊區新北大道七段746號",
    "coordinate": {
      "lat": 25.0253662,
      "lng": 121.4125675
    },
    "post_id": 7037843
  },
  {
    "addr": "新北市土城區中央路三段179號",
    "coordinate": {
      "lat": 24.9650129,
      "lng": 121.431484
    },
    "post_id": 7042193
  },
  {
    "addr": "新北市蘆洲區三民路212號",
    "coordinate": {
      "lat": 25.0891687,
      "lng": 121.4690429
    },
    "post_id": 7044172
  },
  {
    "addr": "新北市土城區清水路237號",
    "coordinate": {
      "lat": 24.9831006,
      "lng": 121.4612284
    },
    "post_id": 7044404
  },
  {
    "addr": "新北市新莊區新莊路",
    "coordinate": {
      "lat": 25.0335547,
      "lng": 121.4503491
    },
    "post_id": 7045617
  },
  {
    "addr": "新北市土城區延吉街211號",
    "coordinate": {
      "lat": 24.9852769,
      "lng": 121.468705
    },
    "post_id": 7046034
  },
  {
    "addr": "新北市蘆洲區民族路456號",
    "coordinate": {
      "lat": 25.091977,
      "lng": 121.4722358
    },
    "post_id": 7046478
  },
  {
    "addr": "新北市中和區興南路一段",
    "coordinate": {
      "lat": 24.9889136,
      "lng": 121.5098619
    },
    "post_id": 7048428
  },
  {
    "addr": "新北市板橋區信義路",
    "coordinate": {
      "lat": 24.9932596,
      "lng": 121.4578103
    },
    "post_id": 7049893
  },
  {
    "addr": "新北市三重區過圳街7巷",
    "coordinate": {
      "lat": 25.0593277,
      "lng": 121.4898401
    },
    "post_id": 7050271
  },
  {
    "addr": "新北市三重區中央北路",
    "coordinate": {
      "lat": 25.0656743,
      "lng": 121.500525
    },
    "post_id": 7050541
  },
  {
    "addr": "新北市新店區永平街68號",
    "coordinate": {
      "lat": 24.9850672,
      "lng": 121.5162952
    },
    "post_id": 7051159
  },
  {
    "addr": "新北市林口區仁愛路一段32號",
    "coordinate": {
      "lat": 25.0756742,
      "lng": 121.397349
    },
    "post_id": 7053469
  },
  {
    "addr": "新北市板橋區文化路二段",
    "coordinate": {
      "lat": 25.0289067,
      "lng": 121.471523
    },
    "post_id": 7057106
  },
  {
    "addr": "新北市中和區立人街34號",
    "coordinate": {
      "lat": 24.9942098,
      "lng": 121.5183261
    },
    "post_id": 7060228
  },
  {
    "addr": "新北市永和區永和路一段",
    "coordinate": {
      "lat": 25.0070702,
      "lng": 121.5132262
    },
    "post_id": 7061988
  },
  {
    "addr": "新北市板橋區懷德街79號",
    "coordinate": {
      "lat": 25.0321296,
      "lng": 121.4779925
    },
    "post_id": 7062367
  },
  {
    "addr": "新北市五股區凌雲路一段80巷",
    "coordinate": {
      "lat": 25.1016081,
      "lng": 121.4509614
    },
    "post_id": 7062580
  },
  {
    "addr": "新北市永和區福和路7巷",
    "coordinate": {
      "lat": 25.0075883,
      "lng": 121.5253364
    },
    "post_id": 7063194
  },
  {
    "addr": "新北市新店區安坑段",
    "coordinate": {
      "lat": 24.9550571,
      "lng": 121.496649
    },
    "post_id": 7064582
  },
  {
    "addr": "新北市永和區秀朗路一段213號",
    "coordinate": {
      "lat": 25.0032894,
      "lng": 121.5195752
    },
    "post_id": 7064936
  },
  {
    "addr": "新北市淡水區清水街",
    "coordinate": {
      "lat": 25.1700811,
      "lng": 121.4434176
    },
    "post_id": 7066255
  },
  {
    "addr": "新北市新店區中央五街42號",
    "coordinate": {
      "lat": 24.9750209,
      "lng": 121.528333
    },
    "post_id": 7066660
  },
  {
    "addr": "新北市新店區民權路42巷32號",
    "coordinate": {
      "lat": 24.9839475,
      "lng": 121.5392026
    },
    "post_id": 7066773
  },
  {
    "addr": "新北市三重區同安街104號",
    "coordinate": {
      "lat": 25.056236,
      "lng": 121.494604
    },
    "post_id": 7067718
  },
  {
    "addr": "新北市板橋區長江路一段381號",
    "coordinate": {
      "lat": 25.0309029,
      "lng": 121.462007
    },
    "post_id": 7068275
  },
  {
    "addr": "新北市中和區景平路",
    "coordinate": {
      "lat": 24.9927636,
      "lng": 121.5118137
    },
    "post_id": 7068774
  },
  {
    "addr": "新北市板橋區篤行路三段37號",
    "coordinate": {
      "lat": 24.9864546,
      "lng": 121.4281202
    },
    "post_id": 7071980
  },
  {
    "addr": "新北市八里區忠孝路",
    "coordinate": {
      "lat": 25.1609818,
      "lng": 121.4212677
    },
    "post_id": 7072960
  },
  {
    "addr": "新北市五股區新五路三段4號",
    "coordinate": {
      "lat": 25.0889464,
      "lng": 121.4452094
    },
    "post_id": 7073747
  },
  {
    "addr": "新北市板橋區自由路22號",
    "coordinate": {
      "lat": 25.0226424,
      "lng": 121.4656344
    },
    "post_id": 7074647
  },
  {
    "addr": "新北市三重區重陽路四段25號",
    "coordinate": {
      "lat": 25.069312,
      "lng": 121.491441
    },
    "post_id": 7075985
  },
  {
    "addr": "新北市新莊區中正路",
    "coordinate": {
      "lat": 25.031423,
      "lng": 121.4307293
    },
    "post_id": 7076194
  },
  {
    "addr": "新北市永和區永平路180巷6號",
    "coordinate": {
      "lat": 25.0092654,
      "lng": 121.5107855
    },
    "post_id": 7076839
  },
  {
    "addr": "新北市林口區文化二路一段230巷7號",
    "coordinate": {
      "lat": 25.0719536,
      "lng": 121.3702793
    },
    "post_id": 7078554
  },
  {
    "addr": "新北市鶯歌區重慶街2號",
    "coordinate": {
      "lat": 24.952676,
      "lng": 121.352055
    },
    "post_id": 7080952
  },
  {
    "addr": "新北市板橋區中正路236巷14號",
    "coordinate": {
      "lat": 25.018978,
      "lng": 121.4563486
    },
    "post_id": 7081007
  },
  {
    "addr": "新北市鶯歌區鳳吉一街",
    "coordinate": {
      "lat": 24.9752157,
      "lng": 121.3283976
    },
    "post_id": 7081356
  },
  {
    "addr": "新北市三重區重陽路一段",
    "coordinate": {
      "lat": 25.0590099,
      "lng": 121.4867858
    },
    "post_id": 7083564
  },
  {
    "addr": "新北市新店區安和路二段76號",
    "coordinate": {
      "lat": 24.9684822,
      "lng": 121.518504
    },
    "post_id": 7084211
  },
  {
    "addr": "新北市永和區中興街",
    "coordinate": {
      "lat": 25.011842,
      "lng": 121.5175089
    },
    "post_id": 7084423
  },
  {
    "addr": "新北市土城區延吉街291巷5號",
    "coordinate": {
      "lat": 24.984487,
      "lng": 121.467258
    },
    "post_id": 7086408
  },
  {
    "addr": "新北市三重區大同南路",
    "coordinate": {
      "lat": 25.0582308,
      "lng": 121.4963792
    },
    "post_id": 7088088
  },
  {
    "addr": "新北市中和區興南路一段",
    "coordinate": {
      "lat": 24.9889136,
      "lng": 121.5098619
    },
    "post_id": 7090694
  },
  {
    "addr": "新北市土城區中央路二段",
    "coordinate": {
      "lat": 24.9760538,
      "lng": 121.4420349
    },
    "post_id": 7093341
  },
  {
    "addr": "新北市三重區長壽西街168號",
    "coordinate": {
      "lat": 25.0664467,
      "lng": 121.4932002
    },
    "post_id": 7093960
  },
  {
    "addr": "新北市樹林區三俊街",
    "coordinate": {
      "lat": 25.0154712,
      "lng": 121.4170879
    },
    "post_id": 7095719
  },
  {
    "addr": "新北市新莊區復興路一段",
    "coordinate": {
      "lat": 25.0429334,
      "lng": 121.4491638
    },
    "post_id": 7097890
  },
  {
    "addr": "新北市永和區仁愛路",
    "coordinate": {
      "lat": 25.0114248,
      "lng": 121.5081698
    },
    "post_id": 7098853
  },
  {
    "addr": "新北市新莊區中華路二段",
    "coordinate": {
      "lat": 25.0490344,
      "lng": 121.4531164
    },
    "post_id": 7100445
  },
  {
    "addr": "新北市汐止區大同路一段263號",
    "coordinate": {
      "lat": 25.058507,
      "lng": 121.635945
    },
    "post_id": 7104612
  },
  {
    "addr": "新北市新莊區中平路",
    "coordinate": {
      "lat": 25.0502647,
      "lng": 121.4448366
    },
    "post_id": 7105734
  },
  {
    "addr": "新北市土城區金城路三段",
    "coordinate": {
      "lat": 24.9888205,
      "lng": 121.4699343
    },
    "post_id": 7106849
  },
  {
    "addr": "新北市新店區北新路二段",
    "coordinate": {
      "lat": 24.974911,
      "lng": 121.5428743
    },
    "post_id": 7106913
  },
  {
    "addr": "新北市汐止區東勢街",
    "coordinate": {
      "lat": 25.0403763,
      "lng": 121.6298031
    },
    "post_id": 7107358
  },
  {
    "addr": "新北市新莊區景德路",
    "coordinate": {
      "lat": 25.0333692,
      "lng": 121.4452768
    },
    "post_id": 7109702
  },
  {
    "addr": "新北市土城區中央路三段87號",
    "coordinate": {
      "lat": 24.9678187,
      "lng": 121.4378363
    },
    "post_id": 7110384
  },
  {
    "addr": "新北市永和區民治街50號",
    "coordinate": {
      "lat": 24.997906,
      "lng": 121.5187715
    },
    "post_id": 7112837
  },
  {
    "addr": "新北市蘆洲區光復路30巷",
    "coordinate": {
      "lat": 25.0848002,
      "lng": 121.4631679
    },
    "post_id": 7115819
  },
  {
    "addr": "新北市新店區中央路206號",
    "coordinate": {
      "lat": 24.973988,
      "lng": 121.5303
    },
    "post_id": 7118200
  },
  {
    "addr": "新北市永和區信義路",
    "coordinate": {
      "lat": 25.013297,
      "lng": 121.5124945
    },
    "post_id": 7119937
  },
  {
    "addr": "新北市新莊區中央路",
    "coordinate": {
      "lat": 25.0588124,
      "lng": 121.4520615
    },
    "post_id": 7122355
  },
  {
    "addr": "新北市蘆洲區三民路",
    "coordinate": {
      "lat": 25.0894185,
      "lng": 121.4683893
    },
    "post_id": 7122443
  },
  {
    "addr": "新北市板橋區南雅東路1號",
    "coordinate": {
      "lat": 25.005556,
      "lng": 121.4553152
    },
    "post_id": 7122605
  },
  {
    "addr": "新北市永和區成功路14號",
    "coordinate": {
      "lat": 25.0007679,
      "lng": 121.5265927
    },
    "post_id": 7122879
  },
  {
    "addr": "新北市土城區德峰街",
    "coordinate": {
      "lat": 24.9857545,
      "lng": 121.4677945
    },
    "post_id": 7127655
  },
  {
    "addr": "新北市新店區中華路41號",
    "coordinate": {
      "lat": 24.967628,
      "lng": 121.540242
    },
    "post_id": 7129148
  },
  {
    "addr": "新北市中和區中興街",
    "coordinate": {
      "lat": 24.9931273,
      "lng": 121.5001991
    },
    "post_id": 7129464
  },
  {
    "addr": "新北市淡水區沙崙路一段126巷30號",
    "coordinate": {
      "lat": 25.188732,
      "lng": 121.4315711
    },
    "post_id": 7131010
  },
  {
    "addr": "新北市中和區景新街423巷",
    "coordinate": {
      "lat": 24.989618,
      "lng": 121.5139434
    },
    "post_id": 7132548
  },
  {
    "addr": "新北市板橋區莊敬路220巷19號",
    "coordinate": {
      "lat": 25.0207334,
      "lng": 121.4725788
    },
    "post_id": 7134060
  },
  {
    "addr": "新北市中和區宜安路",
    "coordinate": {
      "lat": 24.9972785,
      "lng": 121.5110845
    },
    "post_id": 7137004
  },
  {
    "addr": "新北市永和區中正路",
    "coordinate": {
      "lat": 25.0020208,
      "lng": 121.5175232
    },
    "post_id": 7137326
  },
  {
    "addr": "新北市中和區宜安路",
    "coordinate": {
      "lat": 24.9972785,
      "lng": 121.5110845
    },
    "post_id": 7140507
  },
  {
    "addr": "新北市中和區興南路一段",
    "coordinate": {
      "lat": 24.9889136,
      "lng": 121.5098619
    },
    "post_id": 7141642
  },
  {
    "addr": "新北市三重區碧華街121號",
    "coordinate": {
      "lat": 25.0819707,
      "lng": 121.4859166
    },
    "post_id": 7141953
  },
  {
    "addr": "新北市土城區明德路二段112號",
    "coordinate": {
      "lat": 24.9843315,
      "lng": 121.4450259
    },
    "post_id": 7142037
  },
  {
    "addr": "新北市蘆洲區中山二路",
    "coordinate": {
      "lat": 25.0801191,
      "lng": 121.4702092
    },
    "post_id": 7142616
  },
  {
    "addr": "新北市板橋區西門街18號",
    "coordinate": {
      "lat": 25.011294,
      "lng": 121.454573
    },
    "post_id": 7143546
  },
  {
    "addr": "新北市新店區如意街37號",
    "coordinate": {
      "lat": 24.9482169,
      "lng": 121.4937228
    },
    "post_id": 7143750
  },
  {
    "addr": "新北市板橋區陽明街70巷7號",
    "coordinate": {
      "lat": 25.022981,
      "lng": 121.46445
    },
    "post_id": 7145653
  },
  {
    "addr": "新北市樹林區大雅路6號",
    "coordinate": {
      "lat": 24.9444704,
      "lng": 121.3808924
    },
    "post_id": 7146622
  },
  {
    "addr": "新北市三重區中寮街",
    "coordinate": {
      "lat": 25.0586646,
      "lng": 121.4927822
    },
    "post_id": 7147169
  },
  {
    "addr": "新北市永和區和平街20號",
    "coordinate": {
      "lat": 25.0100821,
      "lng": 121.5137569
    },
    "post_id": 7148156
  },
  {
    "addr": "新北市三重區重新路118號",
    "coordinate": {
      "lat": 25.0630226,
      "lng": 121.5006774
    },
    "post_id": 7149079
  },
  {
    "addr": "新北市汐止區茄苳路48號",
    "coordinate": {
      "lat": 25.070618,
      "lng": 121.666079
    },
    "post_id": 7149867
  },
  {
    "addr": "新北市林口區麗園一街27號",
    "coordinate": {
      "lat": 25.0690412,
      "lng": 121.3774517
    },
    "post_id": 7151800
  },
  {
    "addr": "新北市中和區景平路293號",
    "coordinate": {
      "lat": 24.9930034,
      "lng": 121.5070876
    },
    "post_id": 7153943
  },
  {
    "addr": "新北市八里區忠孝路329號",
    "coordinate": {
      "lat": 25.1612723,
      "lng": 121.4176892
    },
    "post_id": 7154085
  },
  {
    "addr": "新北市板橋區文聖街",
    "coordinate": {
      "lat": 25.0290059,
      "lng": 121.4779459
    },
    "post_id": 7157682
  },
  {
    "addr": "新北市三重區同安東街76號",
    "coordinate": {
      "lat": 25.057493,
      "lng": 121.4985432
    },
    "post_id": 7158296
  },
  {
    "addr": "新北市三重區重新路四段",
    "coordinate": {
      "lat": 25.0555187,
      "lng": 121.4863881
    },
    "post_id": 7160597
  },
  {
    "addr": "新北市土城區青仁路",
    "coordinate": {
      "lat": 24.9788138,
      "lng": 121.460398
    },
    "post_id": 7161458
  },
  {
    "addr": "新北市新店區博愛街6巷2號",
    "coordinate": {
      "lat": 24.9731125,
      "lng": 121.5410192
    },
    "post_id": 7162662
  },
  {
    "addr": "新北市樹林區龍興街31巷25號",
    "coordinate": {
      "lat": 25.0161413,
      "lng": 121.4038408
    },
    "post_id": 7165283
  },
  {
    "addr": "新北市板橋區中正路236巷66號",
    "coordinate": {
      "lat": 25.019252,
      "lng": 121.4580154
    },
    "post_id": 7167560
  },
  {
    "addr": "新北市三重區中正南路199號",
    "coordinate": {
      "lat": 25.055926,
      "lng": 121.4938645
    },
    "post_id": 7167653
  },
  {
    "addr": "新北市新店區永平街",
    "coordinate": {
      "lat": 24.9847707,
      "lng": 121.5161175
    },
    "post_id": 6774715
  },
  {
    "addr": "新北市中和區復興路348號",
    "coordinate": {
      "lat": 24.9903371,
      "lng": 121.5001161
    },
    "post_id": 7108214
  },
  {
    "addr": "新北市林口區民族路142號",
    "coordinate": {
      "lat": 25.076091,
      "lng": 121.366903
    },
    "post_id": 5868043
  },
  {
    "addr": "新北市鶯歌區光復街",
    "coordinate": {
      "lat": 24.9558368,
      "lng": 121.351332
    },
    "post_id": 6996384
  },
  {
    "addr": "新北市林口區文化北路一段",
    "coordinate": {
      "lat": 25.073887,
      "lng": 121.3616932
    },
    "post_id": 6299683
  },
  {
    "addr": "新北市新店區中央路",
    "coordinate": {
      "lat": 24.9757217,
      "lng": 121.5316169
    },
    "post_id": 7088270
  },
  {
    "addr": "新北市蘆洲區中原路46號",
    "coordinate": {
      "lat": 25.082522,
      "lng": 121.4593654
    },
    "post_id": 6937739
  },
  {
    "addr": "新北市新莊區中港路535號",
    "coordinate": {
      "lat": 25.0516373,
      "lng": 121.4516211
    },
    "post_id": 7171448
  },
  {
    "addr": "新北市樹林區保安二街",
    "coordinate": {
      "lat": 24.9952714,
      "lng": 121.4239464
    },
    "post_id": 7101075
  },
  {
    "addr": "新北市樹林區博愛街",
    "coordinate": {
      "lat": 24.9892984,
      "lng": 121.4247064
    },
    "post_id": 7101090
  },
  {
    "addr": "新北市淡水區民權路",
    "coordinate": {
      "lat": 25.1357216,
      "lng": 121.459871
    },
    "post_id": 6995183
  },
  {
    "addr": "新北市林口區忠孝路",
    "coordinate": {
      "lat": 25.070885,
      "lng": 121.3700031
    },
    "post_id": 7136547
  },
  {
    "addr": "新北市林口區民族路",
    "coordinate": {
      "lat": 25.0764551,
      "lng": 121.367125
    },
    "post_id": 7136543
  },
  {
    "addr": "新北市林口區林口路",
    "coordinate": {
      "lat": 25.0815544,
      "lng": 121.3884435
    },
    "post_id": 7136514
  },
  {
    "addr": "新北市土城區福安街",
    "coordinate": {
      "lat": 24.9643318,
      "lng": 121.4180532
    },
    "post_id": 6915174
  },
  {
    "addr": "新北市林口區竹林路582巷",
    "coordinate": {
      "lat": 25.0833864,
      "lng": 121.3858483
    },
    "post_id": 7136510
  },
  {
    "addr": "新北市林口區民有街",
    "coordinate": {
      "lat": 25.0767053,
      "lng": 121.3721879
    },
    "post_id": 7141267
  },
  {
    "addr": "新北市林口區文化一路一段",
    "coordinate": {
      "lat": 25.0712161,
      "lng": 121.3734898
    },
    "post_id": 7141277
  },
  {
    "addr": "新北市林口區麗園一街",
    "coordinate": {
      "lat": 25.0707129,
      "lng": 121.3768288
    },
    "post_id": 7160666
  },
  {
    "addr": "新北市林口區文化三路一段617巷",
    "coordinate": {
      "lat": 25.0775879,
      "lng": 121.3711871
    },
    "post_id": 6830775
  },
  {
    "addr": "新北市板橋區英士路",
    "coordinate": {
      "lat": 25.0242809,
      "lng": 121.4601787
    },
    "post_id": 6946359
  },
  {
    "addr": "新北市中和區中正路",
    "coordinate": {
      "lat": 25.0022187,
      "lng": 121.4850735
    },
    "post_id": 6998356
  },
  {
    "addr": "新北市新店區永華街",
    "coordinate": {
      "lat": 24.9758815,
      "lng": 121.5442467
    },
    "post_id": 6943062
  },
  {
    "addr": "新北市新店區北新路二段",
    "coordinate": {
      "lat": 24.974911,
      "lng": 121.5428743
    },
    "post_id": 6943075
  },
  {
    "addr": "新北市新莊區仁愛街54巷",
    "coordinate": {
      "lat": 25.0370434,
      "lng": 121.4449463
    },
    "post_id": 7155920
  },
  {
    "addr": "新北市新莊區新泰路",
    "coordinate": {
      "lat": 25.0398803,
      "lng": 121.4461237
    },
    "post_id": 6896019
  },
  {
    "addr": "新北市蘆洲區中正路",
    "coordinate": {
      "lat": 25.0891747,
      "lng": 121.4658387
    },
    "post_id": 6977580
  },
  {
    "addr": "新北市中和區宜安路",
    "coordinate": {
      "lat": 24.9972785,
      "lng": 121.5110845
    },
    "post_id": 6994453
  },
  {
    "addr": "新北市板橋區區運路",
    "coordinate": {
      "lat": 25.0093666,
      "lng": 121.4650173
    },
    "post_id": 6994363
  },
  {
    "addr": "新北市三重區正義北路",
    "coordinate": {
      "lat": 25.0672296,
      "lng": 121.496428
    },
    "post_id": 7147035
  },
  {
    "addr": "新北市三峽區民生街",
    "coordinate": {
      "lat": 24.9358498,
      "lng": 121.3744143
    },
    "post_id": 7147113
  },
  {
    "addr": "新北市板橋區光武街40號",
    "coordinate": {
      "lat": 25.0260949,
      "lng": 121.4674403
    },
    "post_id": 7106139
  },
  {
    "addr": "新北市五股區凌雲路一段",
    "coordinate": {
      "lat": 25.1017363,
      "lng": 121.4501534
    },
    "post_id": 7171349
  },
  {
    "addr": "新北市板橋區松柏街",
    "coordinate": {
      "lat": 25.0300857,
      "lng": 121.4751522
    },
    "post_id": 6873152
  },
  {
    "addr": "新北市永和區中和路499號",
    "coordinate": {
      "lat": 25.0021775,
      "lng": 121.5105211
    },
    "post_id": 7166364
  },
  {
    "addr": "新北市三重區中華路",
    "coordinate": {
      "lat": 25.0626012,
      "lng": 121.4835199
    },
    "post_id": 7060607
  },
  {
    "addr": "新北市板橋區長江路三段",
    "coordinate": {
      "lat": 25.0342256,
      "lng": 121.4743366
    },
    "post_id": 7150622
  },
  {
    "addr": "新北市板橋區北門街",
    "coordinate": {
      "lat": 25.0109717,
      "lng": 121.4570575
    },
    "post_id": 7015290
  },
  {
    "addr": "新北市板橋區茶館街",
    "coordinate": {
      "lat": 25.0106103,
      "lng": 121.4566101
    },
    "post_id": 7054537
  },
  {
    "addr": "新北市板橋區三民路二段203號",
    "coordinate": {
      "lat": 25.0135051,
      "lng": 121.4792228
    },
    "post_id": 7113714
  },
  {
    "addr": "新北市板橋區民權路",
    "coordinate": {
      "lat": 25.0127615,
      "lng": 121.4599779
    },
    "post_id": 7141145
  },
  {
    "addr": "新北市土城區青雲路",
    "coordinate": {
      "lat": 24.9777773,
      "lng": 121.4589171
    },
    "post_id": 6847062
  },
  {
    "addr": "新北市板橋區縣民大道三段213號",
    "coordinate": {
      "lat": 25.0252798,
      "lng": 121.480217
    },
    "post_id": 7093065
  },
  {
    "addr": "新北市板橋區民生路一段",
    "coordinate": {
      "lat": 25.0129545,
      "lng": 121.4759044
    },
    "post_id": 6984238
  },
  {
    "addr": "新北市板橋區忠孝路196巷",
    "coordinate": {
      "lat": 25.0021723,
      "lng": 121.4654086
    },
    "post_id": 7152331
  },
  {
    "addr": "新北市五股區登林路",
    "coordinate": {
      "lat": 25.0738594,
      "lng": 121.4183291
    },
    "post_id": 7084437
  },
  {
    "addr": "新北市板橋區莒光路",
    "coordinate": {
      "lat": 25.0240667,
      "lng": 121.4717211
    },
    "post_id": 7108319
  },
  {
    "addr": "新北市土城區學府路一段155巷",
    "coordinate": {
      "lat": 24.9857193,
      "lng": 121.4535243
    },
    "post_id": 6365488
  },
  {
    "addr": "新北市板橋區四川路一段",
    "coordinate": {
      "lat": 25.0016309,
      "lng": 121.4592425
    },
    "post_id": 7024185
  },
  {
    "addr": "新北市板橋區四維路",
    "coordinate": {
      "lat": 25.027442,
      "lng": 121.4638565
    },
    "post_id": 7166668
  },
  {
    "addr": "新北市板橋區華興街",
    "coordinate": {
      "lat": 25.0047636,
      "lng": 121.4578742
    },
    "post_id": 7110187
  },
  {
    "addr": "新北市新莊區新泰路",
    "coordinate": {
      "lat": 25.0398803,
      "lng": 121.4461237
    },
    "post_id": 7151040
  },
  {
    "addr": "新北市新莊區立信一街",
    "coordinate": {
      "lat": 25.0494213,
      "lng": 121.4441783
    },
    "post_id": 6965825
  },
  {
    "addr": "新北市新莊區中華路一段",
    "coordinate": {
      "lat": 25.0398461,
      "lng": 121.4523066
    },
    "post_id": 6979910
  },
  {
    "addr": "新北市板橋區陽明街",
    "coordinate": {
      "lat": 25.0237472,
      "lng": 121.4636282
    },
    "post_id": 7043320
  },
  {
    "addr": "新北市板橋區大觀路二段37巷69號",
    "coordinate": {
      "lat": 25.0024849,
      "lng": 121.449844
    },
    "post_id": 7064934
  },
  {
    "addr": "新北市板橋區重慶路278巷",
    "coordinate": {
      "lat": 24.9995611,
      "lng": 121.4622046
    },
    "post_id": 7134209
  },
  {
    "addr": "新北市鶯歌區建國路",
    "coordinate": {
      "lat": 24.953413,
      "lng": 121.3473423
    },
    "post_id": 6844023
  },
  {
    "addr": "新北市板橋區龍興街65巷",
    "coordinate": {
      "lat": 25.0018182,
      "lng": 121.4425932
    },
    "post_id": 7083656
  },
  {
    "addr": "新北市板橋區長安街138巷",
    "coordinate": {
      "lat": 25.0095486,
      "lng": 121.4727785
    },
    "post_id": 7124878
  },
  {
    "addr": "新北市中和區中山路三段",
    "coordinate": {
      "lat": 25.0059683,
      "lng": 121.4755656
    },
    "post_id": 7079009
  },
  {
    "addr": "新北市五股區成泰路三段577巷111號",
    "coordinate": {
      "lat": 25.1040407,
      "lng": 121.4486458
    },
    "post_id": 7171315
  },
  {
    "addr": "新北市三峽區隆恩街",
    "coordinate": {
      "lat": 24.9429802,
      "lng": 121.3643378
    },
    "post_id": 7109424
  },
  {
    "addr": "新北市板橋區雙十路三段",
    "coordinate": {
      "lat": 25.0314869,
      "lng": 121.4708913
    },
    "post_id": 6937383
  },
  {
    "addr": "新北市泰山區明志路三段142巷",
    "coordinate": {
      "lat": 25.040026,
      "lng": 121.4243502
    },
    "post_id": 7143153
  },
  {
    "addr": "新北市新店區北新路一段",
    "coordinate": {
      "lat": 24.9643304,
      "lng": 121.5402495
    },
    "post_id": 7147784
  },
  {
    "addr": "新北市汐止區勤進路83巷1號",
    "coordinate": {
      "lat": 25.057938,
      "lng": 121.6622285
    },
    "post_id": 6745233
  },
  {
    "addr": "新北市板橋區四川路二段",
    "coordinate": {
      "lat": 24.9950533,
      "lng": 121.453337
    },
    "post_id": 7064025
  },
  {
    "addr": "新北市永和區永貞路",
    "coordinate": {
      "lat": 25.0047861,
      "lng": 121.5118963
    },
    "post_id": 6905341
  },
  {
    "addr": "新北市三重區龍門路218號",
    "coordinate": {
      "lat": 25.073728,
      "lng": 121.500116
    },
    "post_id": 6998623
  },
  {
    "addr": "新北市樹林區俊英街",
    "coordinate": {
      "lat": 25.0062427,
      "lng": 121.4269778
    },
    "post_id": 7166559
  },
  {
    "addr": "新北市新莊區中原東路",
    "coordinate": {
      "lat": 25.054455,
      "lng": 121.4631174
    },
    "post_id": 7060745
  },
  {
    "addr": "新北市新莊區中原東路",
    "coordinate": {
      "lat": 25.054455,
      "lng": 121.4631174
    },
    "post_id": 7128118
  },
  {
    "addr": "新北市新莊區中原東路",
    "coordinate": {
      "lat": 25.054455,
      "lng": 121.4631174
    },
    "post_id": 7090520
  },
  {
    "addr": "新北市三重區正義北路",
    "coordinate": {
      "lat": 25.0672296,
      "lng": 121.496428
    },
    "post_id": 7160225
  },
  {
    "addr": "新北市土城區國際路31巷1號",
    "coordinate": {
      "lat": 24.9793754,
      "lng": 121.4658811
    },
    "post_id": 7100426
  },
  {
    "addr": "新北市蘆洲區長榮路",
    "coordinate": {
      "lat": 25.0863428,
      "lng": 121.4601916
    },
    "post_id": 7165217
  },
  {
    "addr": "新北市蘆洲區長興路353號",
    "coordinate": {
      "lat": 25.0911205,
      "lng": 121.4608214
    },
    "post_id": 7143672
  },
  {
    "addr": "新北市三重區三信路",
    "coordinate": {
      "lat": 25.0874911,
      "lng": 121.4896183
    },
    "post_id": 7116885
  },
  {
    "addr": "新北市板橋區民生路二段",
    "coordinate": {
      "lat": 25.0191754,
      "lng": 121.4708551
    },
    "post_id": 7171228
  },
  {
    "addr": "新北市板橋區中山路一段",
    "coordinate": {
      "lat": 25.011832,
      "lng": 121.4655286
    },
    "post_id": 6904905
  },
  {
    "addr": "新北市板橋區民族路",
    "coordinate": {
      "lat": 25.0085333,
      "lng": 121.4657606
    },
    "post_id": 7018981
  },
  {
    "addr": "新北市土城區福仁街53號",
    "coordinate": {
      "lat": 24.9750361,
      "lng": 121.4396849
    },
    "post_id": 7171213
  },
  {
    "addr": "新北市新莊區昌平街336號",
    "coordinate": {
      "lat": 25.0600599,
      "lng": 121.4548088
    },
    "post_id": 7112948
  },
  {
    "addr": "新北市新莊區中央路",
    "coordinate": {
      "lat": 25.0588124,
      "lng": 121.4520615
    },
    "post_id": 6166321
  },
  {
    "addr": "新北市新莊區昌平街",
    "coordinate": {
      "lat": 25.0556883,
      "lng": 121.4545834
    },
    "post_id": 7119108
  },
  {
    "addr": "新北市新莊區昌平街",
    "coordinate": {
      "lat": 25.0556883,
      "lng": 121.4545834
    },
    "post_id": 7040888
  },
  {
    "addr": "新北市中和區建一路",
    "coordinate": {
      "lat": 25.0004699,
      "lng": 121.4881125
    },
    "post_id": 7115880
  },
  {
    "addr": "新北市中和區民享街86巷34號",
    "coordinate": {
      "lat": 25.0006129,
      "lng": 121.4730999
    },
    "post_id": 6973952
  },
  {
    "addr": "新北市三重區力行路一段",
    "coordinate": {
      "lat": 25.0687723,
      "lng": 121.4853265
    },
    "post_id": 7005723
  },
  {
    "addr": "新北市板橋區重慶路",
    "coordinate": {
      "lat": 25.0029251,
      "lng": 121.4626221
    },
    "post_id": 6511526
  },
  {
    "addr": "新北市三重區正義北路",
    "coordinate": {
      "lat": 25.0672296,
      "lng": 121.496428
    },
    "post_id": 7156426
  },
  {
    "addr": "新北市板橋區民生路二段",
    "coordinate": {
      "lat": 25.0191754,
      "lng": 121.4708551
    },
    "post_id": 7135038
  },
  {
    "addr": "新北市土城區仁愛路",
    "coordinate": {
      "lat": 24.9803022,
      "lng": 121.460771
    },
    "post_id": 7160352
  },
  {
    "addr": "新北市板橋區漢生東路",
    "coordinate": {
      "lat": 25.0129257,
      "lng": 121.4687718
    },
    "post_id": 7160360
  },
  {
    "addr": "新北市永和區得和路",
    "coordinate": {
      "lat": 24.9999956,
      "lng": 121.5203545
    },
    "post_id": 7118141
  },
  {
    "addr": "新北市中和區景安路",
    "coordinate": {
      "lat": 24.9950705,
      "lng": 121.5054122
    },
    "post_id": 4625703
  },
  {
    "addr": "新北市板橋區華江一路",
    "coordinate": {
      "lat": 25.0342649,
      "lng": 121.4708267
    },
    "post_id": 7136704
  },
  {
    "addr": "新北市板橋區四川路一段",
    "coordinate": {
      "lat": 25.0016309,
      "lng": 121.4592425
    },
    "post_id": 7164423
  },
  {
    "addr": "新北市板橋區漢生東路",
    "coordinate": {
      "lat": 25.0129257,
      "lng": 121.4687718
    },
    "post_id": 7164315
  },
  {
    "addr": "新北市板橋區中山路一段",
    "coordinate": {
      "lat": 25.011832,
      "lng": 121.4655286
    },
    "post_id": 7164241
  },
  {
    "addr": "新北市土城區延吉街",
    "coordinate": {
      "lat": 24.9850729,
      "lng": 121.4678301
    },
    "post_id": 6988215
  },
  {
    "addr": "新北市板橋區國光路",
    "coordinate": {
      "lat": 25.0180217,
      "lng": 121.4592117
    },
    "post_id": 6938949
  },
  {
    "addr": "新北市板橋區漢生東路",
    "coordinate": {
      "lat": 25.0129257,
      "lng": 121.4687718
    },
    "post_id": 6988431
  },
  {
    "addr": "新北市三重區新北大道二段",
    "coordinate": {
      "lat": 25.0613742,
      "lng": 121.4684553
    },
    "post_id": 6943823
  },
  {
    "addr": "新北市三重區三和路三段",
    "coordinate": {
      "lat": 25.072064,
      "lng": 121.494439
    },
    "post_id": 7148889
  },
  {
    "addr": "新北市三重區過圳街",
    "coordinate": {
      "lat": 25.0599114,
      "lng": 121.4881581
    },
    "post_id": 7156007
  },
  {
    "addr": "新北市新莊區中華路二段",
    "coordinate": {
      "lat": 25.0490344,
      "lng": 121.4531164
    },
    "post_id": 7141051
  },
  {
    "addr": "新北市鶯歌區尖山路120巷26號",
    "coordinate": {
      "lat": 24.9488134,
      "lng": 121.3471158
    },
    "post_id": 6941341
  },
  {
    "addr": "新北市新莊區莊崑路1號",
    "coordinate": {
      "lat": 24.9998594,
      "lng": 121.430811
    },
    "post_id": 7141043
  },
  {
    "addr": "新北市五股區明德路",
    "coordinate": {
      "lat": 25.0712398,
      "lng": 121.4339655
    },
    "post_id": 7141038
  },
  {
    "addr": "新北市樹林區保安街二段",
    "coordinate": {
      "lat": 25.0036081,
      "lng": 121.4145233
    },
    "post_id": 7100873
  },
  {
    "addr": "新北市新莊區中正路",
    "coordinate": {
      "lat": 25.031423,
      "lng": 121.4307293
    },
    "post_id": 7140993
  },
  {
    "addr": "新北市板橋區四川路二段245巷",
    "coordinate": {
      "lat": 24.9926566,
      "lng": 121.4516449
    },
    "post_id": 7139684
  },
  {
    "addr": "新北市新莊區中華路一段",
    "coordinate": {
      "lat": 25.0398461,
      "lng": 121.4523066
    },
    "post_id": 7140980
  },
  {
    "addr": "新北市新莊區民安西路",
    "coordinate": {
      "lat": 25.0148494,
      "lng": 121.4260079
    },
    "post_id": 7136221
  },
  {
    "addr": "新北市新莊區新北大道七段",
    "coordinate": {
      "lat": 25.0305069,
      "lng": 121.4141411
    },
    "post_id": 7134684
  },
  {
    "addr": "新北市新店區永安街109巷",
    "coordinate": {
      "lat": 24.9860314,
      "lng": 121.5215676
    },
    "post_id": 7162778
  },
  {
    "addr": "新北市新莊區民安西路",
    "coordinate": {
      "lat": 25.0148494,
      "lng": 121.4260079
    },
    "post_id": 7132321
  },
  {
    "addr": "新北市泰山區明志路三段",
    "coordinate": {
      "lat": 25.0364459,
      "lng": 121.4227773
    },
    "post_id": 7132036
  },
  {
    "addr": "新北市中和區宜安路",
    "coordinate": {
      "lat": 24.9972785,
      "lng": 121.5110845
    },
    "post_id": 7045942
  },
  {
    "addr": "新北市中和區景平路",
    "coordinate": {
      "lat": 24.9927636,
      "lng": 121.5118137
    },
    "post_id": 7034746
  },
  {
    "addr": "新北市土城區亞洲路",
    "coordinate": {
      "lat": 24.9732699,
      "lng": 121.4352609
    },
    "post_id": 7034748
  },
  {
    "addr": "新北市新莊區思源路",
    "coordinate": {
      "lat": 25.0491921,
      "lng": 121.4600817
    },
    "post_id": 7166169
  },
  {
    "addr": "新北市新莊區福樂街",
    "coordinate": {
      "lat": 25.0460563,
      "lng": 121.4577982
    },
    "post_id": 7088177
  },
  {
    "addr": "新北市五股區芳洲八路",
    "coordinate": {
      "lat": 25.0881186,
      "lng": 121.4463115
    },
    "post_id": 7120208
  },
  {
    "addr": "新北市新莊區新泰路",
    "coordinate": {
      "lat": 25.0398803,
      "lng": 121.4461237
    },
    "post_id": 7100723
  },
  {
    "addr": "新北市中和區中正路",
    "coordinate": {
      "lat": 25.0022187,
      "lng": 121.4850735
    },
    "post_id": 7114307
  },
  {
    "addr": "新北市三重區重陽路一段",
    "coordinate": {
      "lat": 25.0590099,
      "lng": 121.4867858
    },
    "post_id": 7081210
  },
  {
    "addr": "新北市中和區自立路",
    "coordinate": {
      "lat": 24.9934483,
      "lng": 121.5222526
    },
    "post_id": 7068788
  },
  {
    "addr": "新北市中和區景平路",
    "coordinate": {
      "lat": 24.9927636,
      "lng": 121.5118137
    },
    "post_id": 7107947
  },
  {
    "addr": "新北市中和區連城路",
    "coordinate": {
      "lat": 24.9962603,
      "lng": 121.4880503
    },
    "post_id": 7011208
  },
  {
    "addr": "新北市中和區連勝街",
    "coordinate": {
      "lat": 24.9967877,
      "lng": 121.4967663
    },
    "post_id": 7148769
  },
  {
    "addr": "新北市永和區國光路",
    "coordinate": {
      "lat": 25.0097153,
      "lng": 121.5181316
    },
    "post_id": 7122064
  },
  {
    "addr": "新北市中和區忠孝街",
    "coordinate": {
      "lat": 24.9857,
      "lng": 121.5121313
    },
    "post_id": 7121661
  },
  {
    "addr": "新北市新莊區復興路二段",
    "coordinate": {
      "lat": 25.0443212,
      "lng": 121.4565236
    },
    "post_id": 7076076
  },
  {
    "addr": "新北市土城區中央路四段",
    "coordinate": {
      "lat": 24.9576123,
      "lng": 121.4162599
    },
    "post_id": 7065251
  },
  {
    "addr": "新北市中和區員山路",
    "coordinate": {
      "lat": 24.9950343,
      "lng": 121.4810014
    },
    "post_id": 6932990
  },
  {
    "addr": "新北市中和區中正路",
    "coordinate": {
      "lat": 25.0022187,
      "lng": 121.4850735
    },
    "post_id": 6829936
  },
  {
    "addr": "新北市新莊區中央路287號",
    "coordinate": {
      "lat": 25.0588112,
      "lng": 121.4522173
    },
    "post_id": 7132157
  },
  {
    "addr": "新北市板橋區重慶路",
    "coordinate": {
      "lat": 25.0029251,
      "lng": 121.4626221
    },
    "post_id": 7075825
  },
  {
    "addr": "新北市新莊區新泰路",
    "coordinate": {
      "lat": 25.0398803,
      "lng": 121.4461237
    },
    "post_id": 7075828
  },
  {
    "addr": "新北市板橋區文化路一段",
    "coordinate": {
      "lat": 25.0163018,
      "lng": 121.4629721
    },
    "post_id": 7072059
  },
  {
    "addr": "新北市新莊區化成路364巷",
    "coordinate": {
      "lat": 25.0495643,
      "lng": 121.46625
    },
    "post_id": 7075804
  },
  {
    "addr": "新北市汐止區中興路181巷",
    "coordinate": {
      "lat": 25.0663792,
      "lng": 121.6299818
    },
    "post_id": 6932655
  },
  {
    "addr": "新北市蘆洲區長安街68巷",
    "coordinate": {
      "lat": 25.0808798,
      "lng": 121.4637094
    },
    "post_id": 7022978
  },
  {
    "addr": "新北市新莊區新北大道二段",
    "coordinate": {
      "lat": 25.0606246,
      "lng": 121.4602589
    },
    "post_id": 7075671
  },
  {
    "addr": "新北市新莊區中正路",
    "coordinate": {
      "lat": 25.031423,
      "lng": 121.4307293
    },
    "post_id": 7075657
  },
  {
    "addr": "新北市新莊區中原東路",
    "coordinate": {
      "lat": 25.054455,
      "lng": 121.4631174
    },
    "post_id": 7073338
  },
  {
    "addr": "新北市蘆洲區中山一路",
    "coordinate": {
      "lat": 25.0808788,
      "lng": 121.4738038
    },
    "post_id": 7072867
  },
  {
    "addr": "新北市新莊區思源路",
    "coordinate": {
      "lat": 25.0491921,
      "lng": 121.4600817
    },
    "post_id": 7065810
  },
  {
    "addr": "新北市汐止區新台五路二段",
    "coordinate": {
      "lat": 25.0665511,
      "lng": 121.6763685
    },
    "post_id": 6897442
  },
  {
    "addr": "新北市三重區中央北路",
    "coordinate": {
      "lat": 25.0656743,
      "lng": 121.500525
    },
    "post_id": 7121491
  },
  {
    "addr": "新北市土城區金城路一段",
    "coordinate": {
      "lat": 24.9717768,
      "lng": 121.443331
    },
    "post_id": 7129569
  },
  {
    "addr": "新北市板橋區裕民街",
    "coordinate": {
      "lat": 25.0283255,
      "lng": 121.4607927
    },
    "post_id": 7026310
  },
  {
    "addr": "新北市新莊區立信一街",
    "coordinate": {
      "lat": 25.0494213,
      "lng": 121.4441783
    },
    "post_id": 6992736
  },
  {
    "addr": "新北市新店區光明街",
    "coordinate": {
      "lat": 24.9619176,
      "lng": 121.5395077
    },
    "post_id": 6930153
  },
  {
    "addr": "新北市新店區光明街",
    "coordinate": {
      "lat": 24.9619176,
      "lng": 121.5395077
    },
    "post_id": 6930091
  },
  {
    "addr": "新北市新莊區公園一路",
    "coordinate": {
      "lat": 25.0379932,
      "lng": 121.4448667
    },
    "post_id": 7031565
  },
  {
    "addr": "新北市新莊區五權一路",
    "coordinate": {
      "lat": 25.0658364,
      "lng": 121.457858
    },
    "post_id": 7038087
  },
  {
    "addr": "新北市三重區碧華街",
    "coordinate": {
      "lat": 25.0827916,
      "lng": 121.4880065
    },
    "post_id": 7021275
  },
  {
    "addr": "新北市新店區寶元路一段",
    "coordinate": {
      "lat": 24.9850334,
      "lng": 121.5434496
    },
    "post_id": 7101540
  },
  {
    "addr": "新北市板橋區重慶路",
    "coordinate": {
      "lat": 25.0029251,
      "lng": 121.4626221
    },
    "post_id": 7115935
  },
  {
    "addr": "新北市三峽區愛國路",
    "coordinate": {
      "lat": 24.9321028,
      "lng": 121.3748221
    },
    "post_id": 4374979
  },
  {
    "addr": "新北市土城區延吉街",
    "coordinate": {
      "lat": 24.9850729,
      "lng": 121.4678301
    },
    "post_id": 6957795
  },
  {
    "addr": "新北市三重區力行路一段",
    "coordinate": {
      "lat": 25.0687723,
      "lng": 121.4853265
    },
    "post_id": 7010574
  },
  {
    "addr": "新北市淡水區新市二路三段",
    "coordinate": {
      "lat": 25.1935354,
      "lng": 121.4351782
    },
    "post_id": 7028545
  },
  {
    "addr": "新北市永和區永亨路",
    "coordinate": {
      "lat": 25.0048183,
      "lng": 121.523111
    },
    "post_id": 7114144
  },
  {
    "addr": "新北市樹林區佳園路三段",
    "coordinate": {
      "lat": 24.9488097,
      "lng": 121.385325
    },
    "post_id": 5920437
  },
  {
    "addr": "新北市三峽區學成路",
    "coordinate": {
      "lat": 24.9432278,
      "lng": 121.376118
    },
    "post_id": 6858897
  },
  {
    "addr": "新北市蘆洲區中正路",
    "coordinate": {
      "lat": 25.0891747,
      "lng": 121.4658387
    },
    "post_id": 7101272
  },
  {
    "addr": "新北市板橋區南雅南路二段144巷",
    "coordinate": {
      "lat": 24.9956555,
      "lng": 121.4508225
    },
    "post_id": 7096134
  },
  {
    "addr": "新北市永和區永平路",
    "coordinate": {
      "lat": 25.0105921,
      "lng": 121.5090139
    },
    "post_id": 6861085
  },
  {
    "addr": "新北市板橋區中山路一段",
    "coordinate": {
      "lat": 25.011832,
      "lng": 121.4655286
    },
    "post_id": 7067915
  },
  {
    "addr": "新北市土城區中央路二段",
    "coordinate": {
      "lat": 24.9760538,
      "lng": 121.4420349
    },
    "post_id": 7141333
  },
  {
    "addr": "新北市蘆洲區長安街",
    "coordinate": {
      "lat": 25.0825496,
      "lng": 121.4597034
    },
    "post_id": 6984108
  },
  {
    "addr": "新北市板橋區民族路",
    "coordinate": {
      "lat": 25.0085333,
      "lng": 121.4657606
    },
    "post_id": 6994396
  },
  {
    "addr": "新北市新莊區中正路",
    "coordinate": {
      "lat": 25.031423,
      "lng": 121.4307293
    },
    "post_id": 7027878
  },
  {
    "addr": "新北市板橋區文化路一段45巷",
    "coordinate": {
      "lat": 25.0137794,
      "lng": 121.4602253
    },
    "post_id": 7069256
  },
  {
    "addr": "新北市泰山區貴子路",
    "coordinate": {
      "lat": 25.0407388,
      "lng": 121.4281342
    },
    "post_id": 7060740
  },
  {
    "addr": "新北市蘆洲區正和街",
    "coordinate": {
      "lat": 25.0814571,
      "lng": 121.469093
    },
    "post_id": 7020090
  },
  {
    "addr": "新北市樹林區鎮前街",
    "coordinate": {
      "lat": 24.9859806,
      "lng": 121.41999
    },
    "post_id": 7034418
  },
  {
    "addr": "新北市樹林區復興路",
    "coordinate": {
      "lat": 24.9889416,
      "lng": 121.4185901
    },
    "post_id": 7057486
  },
  {
    "addr": "新北市永和區福和路",
    "coordinate": {
      "lat": 25.0077328,
      "lng": 121.5198873
    },
    "post_id": 7043275
  },
  {
    "addr": "新北市新莊區豐盛一街",
    "coordinate": {
      "lat": 25.0000328,
      "lng": 121.4319928
    },
    "post_id": 6885822
  },
  {
    "addr": "新北市板橋區篤行路三段",
    "coordinate": {
      "lat": 24.9861281,
      "lng": 121.4278058
    },
    "post_id": 6976630
  },
  {
    "addr": "新北市樹林區保安街二段",
    "coordinate": {
      "lat": 25.0036081,
      "lng": 121.4145233
    },
    "post_id": 7017940
  },
  {
    "addr": "新北市林口區文化三路一段447巷",
    "coordinate": {
      "lat": 25.0752203,
      "lng": 121.3677014
    },
    "post_id": 6925581
  },
  {
    "addr": "新北市樹林區鎮前街",
    "coordinate": {
      "lat": 24.9859806,
      "lng": 121.41999
    },
    "post_id": 7034478
  },
  {
    "addr": "新北市新莊區樹新路",
    "coordinate": {
      "lat": 24.9975983,
      "lng": 121.4294082
    },
    "post_id": 7151665
  },
  {
    "addr": "新北市新莊區中原路",
    "coordinate": {
      "lat": 25.0543131,
      "lng": 121.44978
    },
    "post_id": 7034789
  },
  {
    "addr": "新北市新莊區建中街",
    "coordinate": {
      "lat": 25.0367091,
      "lng": 121.4472217
    },
    "post_id": 6970554
  },
  {
    "addr": "新北市新莊區中正路",
    "coordinate": {
      "lat": 25.031423,
      "lng": 121.4307293
    },
    "post_id": 6904891
  },
  {
    "addr": "新北市泰山區貴子路",
    "coordinate": {
      "lat": 25.0407388,
      "lng": 121.4281342
    },
    "post_id": 7061241
  },
  {
    "addr": "新北市新莊區化成路",
    "coordinate": {
      "lat": 25.0544732,
      "lng": 121.4661641
    },
    "post_id": 6964338
  },
  {
    "addr": "新北市泰山區明志路三段",
    "coordinate": {
      "lat": 25.0364459,
      "lng": 121.4227773
    },
    "post_id": 6964328
  },
  {
    "addr": "新北市板橋區雙十路三段",
    "coordinate": {
      "lat": 25.0314869,
      "lng": 121.4708913
    },
    "post_id": 6964321
  },
  {
    "addr": "新北市中和區永和路",
    "coordinate": {
      "lat": 25.0058101,
      "lng": 121.4964738
    },
    "post_id": 7070341
  },
  {
    "addr": "新北市鶯歌區行政路",
    "coordinate": {
      "lat": 24.9559094,
      "lng": 121.3527203
    },
    "post_id": 6908392
  },
  {
    "addr": "新北市三重區三賢街",
    "coordinate": {
      "lat": 25.0879199,
      "lng": 121.4871653
    },
    "post_id": 7167813
  },
  {
    "addr": "新北市板橋區大觀路三段",
    "coordinate": {
      "lat": 24.9937704,
      "lng": 121.4320553
    },
    "post_id": 6964266
  },
  {
    "addr": "新北市新莊區五工路",
    "coordinate": {
      "lat": 25.0652358,
      "lng": 121.4557174
    },
    "post_id": 6964259
  },
  {
    "addr": "新北市淡水區淡海路9號",
    "coordinate": {
      "lat": 25.1784365,
      "lng": 121.4240464
    },
    "post_id": 7098483
  },
  {
    "addr": "新北市泰山區泰林路二段",
    "coordinate": {
      "lat": 25.0598008,
      "lng": 121.4341954
    },
    "post_id": 6925571
  },
  {
    "addr": "新北市三重區正義北路",
    "coordinate": {
      "lat": 25.0672296,
      "lng": 121.496428
    },
    "post_id": 6927647
  },
  {
    "addr": "新北市五股區中興路一段",
    "coordinate": {
      "lat": 25.0732299,
      "lng": 121.4661394
    },
    "post_id": 7134249
  },
  {
    "addr": "新北市新莊區瓊泰路",
    "coordinate": {
      "lat": 25.0315807,
      "lng": 121.4431554
    },
    "post_id": 6927978
  },
  {
    "addr": "新北市板橋區國慶路",
    "coordinate": {
      "lat": 24.9958889,
      "lng": 121.4607208
    },
    "post_id": 6930952
  },
  {
    "addr": "新北市淡水區英專路28巷",
    "coordinate": {
      "lat": 25.1699185,
      "lng": 121.4459294
    },
    "post_id": 7164275
  },
  {
    "addr": "新北市淡水區北新路二段17號",
    "coordinate": {
      "lat": 25.185745,
      "lng": 121.4769451
    },
    "post_id": 7090346
  },
  {
    "addr": "新北市三芝區土地公坑",
    "coordinate": {
      "lat": 25.246299,
      "lng": 121.464067
    },
    "post_id": 7090325
  },
  {
    "addr": "新北市蘆洲區中山二路",
    "coordinate": {
      "lat": 25.0801191,
      "lng": 121.4702092
    },
    "post_id": 6918918
  },
  {
    "addr": "新北市新店區花園六路",
    "coordinate": {
      "lat": 24.9334495,
      "lng": 121.5548079
    },
    "post_id": 7160558
  },
  {
    "addr": "新北市板橋區中正路",
    "coordinate": {
      "lat": 25.0334534,
      "lng": 121.4402149
    },
    "post_id": 6901486
  },
  {
    "addr": "新北市林口區仁愛二路",
    "coordinate": {
      "lat": 25.0750368,
      "lng": 121.3690695
    },
    "post_id": 7160528
  },
  {
    "addr": "新北市泰山區明志路一段",
    "coordinate": {
      "lat": 25.0601294,
      "lng": 121.4320881
    },
    "post_id": 7133734
  },
  {
    "addr": "新北市三重區正義北路",
    "coordinate": {
      "lat": 25.0672296,
      "lng": 121.496428
    },
    "post_id": 6962471
  },
  {
    "addr": "新北市蘆洲區中正路",
    "coordinate": {
      "lat": 25.0891747,
      "lng": 121.4658387
    },
    "post_id": 6881804
  },
  {
    "addr": "新北市三重區大同南路",
    "coordinate": {
      "lat": 25.0582308,
      "lng": 121.4963792
    },
    "post_id": 6881737
  },
  {
    "addr": "新北市林口區文化三路一段617巷",
    "coordinate": {
      "lat": 25.0775879,
      "lng": 121.3711871
    },
    "post_id": 7011558
  },
  {
    "addr": "新北市新莊區思源路",
    "coordinate": {
      "lat": 25.0491921,
      "lng": 121.4600817
    },
    "post_id": 6875872
  },
  {
    "addr": "新北市新莊區四維路",
    "coordinate": {
      "lat": 25.0225902,
      "lng": 121.4228239
    },
    "post_id": 6875860
  },
  {
    "addr": "新北市新莊區中港三街",
    "coordinate": {
      "lat": 25.0463311,
      "lng": 121.4497695
    },
    "post_id": 6936884
  },
  {
    "addr": "新北市新莊區思源路",
    "coordinate": {
      "lat": 25.0491921,
      "lng": 121.4600817
    },
    "post_id": 6851265
  },
  {
    "addr": "新北市樹林區學勤路",
    "coordinate": {
      "lat": 24.9477687,
      "lng": 121.3789401
    },
    "post_id": 7047080
  },
  {
    "addr": "新北市樹林區龍興街32巷",
    "coordinate": {
      "lat": 25.0156167,
      "lng": 121.4021947
    },
    "post_id": 7095153
  },
  {
    "addr": "新北市三重區重陽路四段",
    "coordinate": {
      "lat": 25.0707131,
      "lng": 121.4921337
    },
    "post_id": 7061230
  },
  {
    "addr": "新北市中和區莒光路",
    "coordinate": {
      "lat": 24.9986416,
      "lng": 121.4721284
    },
    "post_id": 7043173
  },
  {
    "addr": "新北市新莊區民安路",
    "coordinate": {
      "lat": 25.0227587,
      "lng": 121.4301911
    },
    "post_id": 7015456
  },
  {
    "addr": "新北市新莊區民安路",
    "coordinate": {
      "lat": 25.0227587,
      "lng": 121.4301911
    },
    "post_id": 7000899
  },
  {
    "addr": "新北市新莊區中正路",
    "coordinate": {
      "lat": 25.031423,
      "lng": 121.4307293
    },
    "post_id": 7058774
  },
  {
    "addr": "新北市淡水區中山北路二段",
    "coordinate": {
      "lat": 25.1859086,
      "lng": 121.4442074
    },
    "post_id": 7091367
  },
  {
    "addr": "新北市三重區自強路五段",
    "coordinate": {
      "lat": 25.0820469,
      "lng": 121.495039
    },
    "post_id": 6989776
  },
  {
    "addr": "新北市板橋區莒光路",
    "coordinate": {
      "lat": 25.0240667,
      "lng": 121.4717211
    },
    "post_id": 6976481
  },
  {
    "addr": "新北市樹林區鎮前街",
    "coordinate": {
      "lat": 24.9859806,
      "lng": 121.41999
    },
    "post_id": 7134915
  },
  {
    "addr": "新北市五股區芳洲七路",
    "coordinate": {
      "lat": 25.0876607,
      "lng": 121.4460101
    },
    "post_id": 6867542
  },
  {
    "addr": "新北市八里區龍米路二段",
    "coordinate": {
      "lat": 25.1510684,
      "lng": 121.442426
    },
    "post_id": 6947184
  },
  {
    "addr": "新北市三重區國道路一段39巷",
    "coordinate": {
      "lat": 25.0727538,
      "lng": 121.4831441
    },
    "post_id": 7154523
  },
  {
    "addr": "新北市八里區忠孝路",
    "coordinate": {
      "lat": 25.1609818,
      "lng": 121.4212677
    },
    "post_id": 6869732
  },
  {
    "addr": "新北市淡水區鼻頭街",
    "coordinate": {
      "lat": 25.1672842,
      "lng": 121.447244
    },
    "post_id": 6986468
  },
  {
    "addr": "新北市淡水區民族路",
    "coordinate": {
      "lat": 25.1335651,
      "lng": 121.462405
    },
    "post_id": 7090630
  },
  {
    "addr": "新北市淡水區鼻頭街1號",
    "coordinate": {
      "lat": 25.1672044,
      "lng": 121.4473199
    },
    "post_id": 6986460
  },
  {
    "addr": "新北市新莊區中央路",
    "coordinate": {
      "lat": 25.0588124,
      "lng": 121.4520615
    },
    "post_id": 6958967
  },
  {
    "addr": "新北市土城區學府路一段",
    "coordinate": {
      "lat": 24.9864837,
      "lng": 121.4539878
    },
    "post_id": 6965061
  },
  {
    "addr": "新北市樹林區中華路132號",
    "coordinate": {
      "lat": 24.9806562,
      "lng": 121.4171017
    },
    "post_id": 7092299
  },
  {
    "addr": "新北市汐止區中興路",
    "coordinate": {
      "lat": 25.0644023,
      "lng": 121.6326911
    },
    "post_id": 7158491
  },
  {
    "addr": "新北市汐止區中興路181巷",
    "coordinate": {
      "lat": 25.0663792,
      "lng": 121.6299818
    },